$GPGGA,090436,3206.135210,N,3510.110100,E,1,4,1.00,540.3,M,0.000,M,,*48
$GPRMC,090436,A,3206.135210,N,3510.110100,E,0.0,261.76,010416,,*16
$GPGGA,090541,3206.114770,N,3509.944360,E,1,4,1.00,516.1,M,0.000,M,,*4D
$GPRMC,090541,A,3206.114770,N,3509.944360,E,0.0,352.03,010416,,*11
$GPGGA,090645,3206.401910,N,3509.897140,E,1,4,1.00,503.7,M,0.000,M,,*4E
$GPRMC,090645,A,3206.401910,N,3509.897140,E,0.0,307.74,010416,,*10
$GPGGA,090750,3206.576640,N,3509.631910,E,1,4,1.00,512.4,M,0.000,M,,*4C
$GPRMC,090750,A,3206.576640,N,3509.631910,E,0.0,270.52,010416,,*14
$GPGGA,090855,3206.585210,N,3508.502390,E,1,4,1.00,430.1,M,0.000,M,,*4F
$GPRMC,090855,A,3206.585210,N,3508.502390,E,0.0,247.11,010416,,*10
$GPGGA,091000,3206.331000,N,3507.795050,E,1,4,1.00,401.3,M,0.000,M,,*40
$GPRMC,091000,A,3206.331000,N,3507.795050,E,0.0,236.34,010416,,*1E
$GPGGA,091105,3205.756550,N,3506.781660,E,1,4,1.00,366.8,M,0.000,M,,*4E
$GPRMC,091105,A,3205.756550,N,3506.781660,E,0.0,258.34,010416,,*15
$GPGGA,091209,3205.550010,N,3505.605960,E,1,4,1.00,378.7,M,0.000,M,,*45
$GPRMC,091209,A,3205.550010,N,3505.605960,E,0.0,284.68,010416,,*16
$GPGGA,091314,3205.808780,N,3504.444850,E,1,4,1.00,328.0,M,0.000,M,,*40
$GPRMC,091314,A,3205.808780,N,3504.444850,E,0.0,285.83,010416,,*15
$GPGGA,091419,3206.088150,N,3503.286620,E,1,4,1.00,280.6,M,0.000,M,,*41
$GPRMC,091419,A,3206.088150,N,3503.286620,E,0.0,270.46,010416,,*12
$GPGGA,091524,3206.096690,N,3502.026580,E,1,4,1.00,216.8,M,0.000,M,,*4B
$GPRMC,091524,A,3206.096690,N,3502.026580,E,0.0,291.56,010416,,*17
$GPGGA,091629,3206.505080,N,3500.812110,E,1,4,1.00,159.6,M,0.000,M,,*4B
$GPRMC,091629,A,3206.505080,N,3500.812110,E,0.0,262.96,010416,,*11
$GPGGA,091734,3206.464340,N,3500.424430,E,1,4,1.00,140.8,M,0.000,M,,*47
$GPRMC,091734,A,3206.464340,N,3500.424430,E,0.0,257.56,010416,,*11
$GPGGA,091839,3206.303230,N,3459.566330,E,1,4,1.00,92.7,M,0.000,M,,*79
$GPRMC,091839,A,3206.303230,N,3459.566330,E,0.0,261.74,010416,,*1B
$GPGGA,091944,3206.146660,N,3458.300520,E,1,4,1.00,92.7,M,0.000,M,,*70
$GPRMC,091944,A,3206.146660,N,3458.300520,E,0.0,302.36,010416,,*10
$GPGGA,092048,3206.748220,N,3457.184910,E,1,4,1.00,51.4,M,0.000,M,,*7C
$GPRMC,092048,A,3206.748220,N,3457.184910,E,0.0,281.95,010416,,*13
$GPGGA,092153,3206.976920,N,3455.914520,E,1,4,1.00,38.4,M,0.000,M,,*7C
$GPRMC,092153,A,3206.976920,N,3455.914520,E,0.0,282.30,010416,,*10
$GPGGA,092258,3207.166900,N,3454.890290,E,1,4,1.00,24.1,M,0.000,M,,*76
$GPRMC,092258,A,3207.166900,N,3454.890290,E,0.0,280.98,010416,,*12
$GPGGA,092403,3207.327950,N,3453.914740,E,1,4,1.00,27.5,M,0.000,M,,*79
$GPRMC,092403,A,3207.327950,N,3453.914740,E,0.0,257.40,010416,,*15
$GPGGA,092507,3207.153950,N,3453.000170,E,1,4,1.00,22.5,M,0.000,M,,*71
$GPRMC,092507,A,3207.153950,N,3453.000170,E,0.0,276.71,010416,,*19
$GPGGA,092612,3207.255330,N,3451.987130,E,1,4,1.00,16.4,M,0.000,M,,*79
$GPRMC,092612,A,3207.255330,N,3451.987130,E,0.0,293.46,010416,,*18
$GPGGA,092717,3207.576450,N,3451.117420,E,1,4,1.00,27.8,M,0.000,M,,*71
$GPRMC,092717,A,3207.576450,N,3451.117420,E,0.0,296.31,010416,,*1B
$GPGGA,092822,3207.975740,N,3450.168400,E,1,4,1.00,49.9,M,0.000,M,,*77
$GPRMC,092822,A,3207.975740,N,3450.168400,E,0.0,291.57,010416,,*13
$GPGGA,092927,3208.325770,N,3449.127560,E,1,4,1.00,30.1,M,0.000,M,,*72
$GPRMC,092927,A,3208.325770,N,3449.127560,E,0.0,278.42,010416,,*13
$GPGGA,093032,3208.431420,N,3448.288130,E,1,4,1.00,27.1,M,0.000,M,,*7A
$GPRMC,093032,A,3208.431420,N,3448.288130,E,0.0,353.57,010416,,*11
$GPGGA,093137,3208.890150,N,3448.227400,E,1,4,1.00,23.9,M,0.000,M,,*74
$GPRMC,093137,A,3208.890150,N,3448.227400,E,0.0,26.93,010416,,*2A
$GPGGA,093242,3209.489770,N,3448.585430,E,1,4,1.00,21.6,M,0.000,M,,*75
$GPRMC,093242,A,3209.489770,N,3448.585430,E,0.0,31.40,010416,,*2E
$GPGGA,093348,3209.575230,N,3448.646760,E,1,4,1.00,24.4,M,0.000,M,,*70
$GPRMC,093348,A,3209.575230,N,3448.646760,E,0.0,26.89,010416,,*2F
$GPGGA,093452,3209.639300,N,3448.684960,E,1,4,1.00,27.2,M,0.000,M,,*70
$GPRMC,093452,A,3209.639300,N,3448.684960,E,0.0,25.33,010416,,*28
$GPGGA,093557,3209.705960,N,3448.722060,E,1,4,1.00,29.2,M,0.000,M,,*7C
$GPRMC,093557,A,3209.705960,N,3448.722060,E,0.0,24.94,010416,,*26
$GPGGA,093701,3209.768480,N,3448.756240,E,1,4,1.00,29.5,M,0.000,M,,*71
$GPRMC,093701,A,3209.768480,N,3448.756240,E,0.0,25.52,010416,,*27
$GPGGA,093805,3209.838660,N,3448.795620,E,1,4,1.00,29.7,M,0.000,M,,*73
$GPRMC,093805,A,3209.838660,N,3448.795620,E,0.0,21.11,010416,,*24
$GPGGA,093910,3209.893310,N,3448.820420,E,1,4,1.00,32.2,M,0.000,M,,*79
$GPRMC,093910,A,3209.893310,N,3448.820420,E,0.0,7.62,010416,,*11
$GPGGA,094013,3209.948530,N,3448.829110,E,1,4,1.00,35.9,M,0.000,M,,*74
$GPRMC,094013,A,3209.948530,N,3448.829110,E,0.0,7.08,010416,,*1C
$GPGGA,094118,3210.029530,N,3448.840940,E,1,4,1.00,34.9,M,0.000,M,,*7B
$GPRMC,094118,A,3210.029530,N,3448.840940,E,0.0,9.70,010416,,*13
$GPGGA,094223,3210.373850,N,3448.910110,E,1,4,1.00,33.6,M,0.000,M,,*76
$GPRMC,094223,A,3210.373850,N,3448.910110,E,0.0,3.78,010416,,*14
$GPGGA,094328,3211.351700,N,3448.986030,E,1,4,1.00,30.1,M,0.000,M,,*7F
$GPRMC,094328,A,3211.351700,N,3448.986030,E,0.0,16.25,010416,,*25
$GPGGA,094433,3212.317620,N,3449.317230,E,1,4,1.00,34.9,M,0.000,M,,*7D
$GPRMC,094433,A,3212.317620,N,3449.317230,E,0.0,23.02,010416,,*28
$GPGGA,094538,3213.269130,N,3449.792900,E,1,4,1.00,37.7,M,0.000,M,,*74
$GPRMC,094538,A,3213.269130,N,3449.792900,E,0.0,9.89,010416,,*17
$GPGGA,094644,3214.180490,N,3449.979860,E,1,4,1.00,27.5,M,0.000,M,,*7F
$GPRMC,094644,A,3214.180490,N,3449.979860,E,0.0,8.07,010416,,*18
$GPGGA,094748,3215.047220,N,3450.124460,E,1,4,1.00,23.9,M,0.000,M,,*78
$GPRMC,094748,A,3215.047220,N,3450.124460,E,0.0,14.79,010416,,*23
$GPGGA,094853,3216.007420,N,3450.422830,E,1,4,1.00,13.5,M,0.000,M,,*79
$GPRMC,094853,A,3216.007420,N,3450.422830,E,0.0,55.24,010416,,*20
$GPGGA,094959,3216.557770,N,3451.356260,E,1,4,1.00,31.6,M,0.000,M,,*7D
$GPRMC,094959,A,3216.557770,N,3451.356260,E,0.0,16.30,010416,,*25
$GPGGA,095103,3217.215670,N,3451.582770,E,1,4,1.00,30.6,M,0.000,M,,*70
$GPRMC,095103,A,3217.215670,N,3451.582770,E,0.0,283.46,010416,,*16
$GPGGA,095208,3217.267100,N,3451.329780,E,1,4,1.00,37.3,M,0.000,M,,*77
$GPRMC,095208,A,3217.267100,N,3451.329780,E,0.0,250.50,010416,,*1A
$GPGGA,095312,3217.262750,N,3451.315320,E,1,4,1.00,39.3,M,0.000,M,,*74
$GPRMC,095312,A,3217.262750,N,3451.315320,E,0.0,102.96,010416,,*19
$GPGGA,095418,3217.229660,N,3451.484590,E,1,4,1.00,34.6,M,0.000,M,,*7E
$GPRMC,095418,A,3217.229660,N,3451.484590,E,0.0,106.54,010416,,*11
$GPGGA,095523,3217.219720,N,3451.524000,E,1,4,1.00,33.9,M,0.000,M,,*7E
$GPRMC,095523,A,3217.219720,N,3451.524000,E,0.0,106.12,010416,,*1B
$GPGGA,095627,3217.212410,N,3451.553780,E,1,4,1.00,33.5,M,0.000,M,,*71
$GPRMC,095627,A,3217.212410,N,3451.553780,E,0.0,88.75,010416,,*2E
$GPGGA,095732,3217.212820,N,3451.575910,E,1,4,1.00,34.7,M,0.000,M,,*7D
$GPRMC,095732,A,3217.212820,N,3451.575910,E,0.0,13.85,010416,,*2A
$GPGGA,095838,3217.487240,N,3451.655580,E,1,4,1.00,25.4,M,0.000,M,,*79
$GPRMC,095838,A,3217.487240,N,3451.655580,E,0.0,11.86,010416,,*2C
$GPGGA,095943,3218.331320,N,3451.864300,E,1,4,1.00,22.3,M,0.000,M,,*74
$GPRMC,095943,A,3218.331320,N,3451.864300,E,0.0,6.75,010416,,*1B
$GPGGA,100048,3219.206750,N,3451.986280,E,1,4,1.00,23.6,M,0.000,M,,*7C
$GPRMC,100048,A,3219.206750,N,3451.986280,E,0.0,18.83,010416,,*21
$GPGGA,100153,3220.146380,N,3452.363790,E,1,4,1.00,20.8,M,0.000,M,,*78
$GPRMC,100153,A,3220.146380,N,3452.363790,E,0.0,17.72,010416,,*29
$GPGGA,100257,3221.067610,N,3452.710520,E,1,4,1.00,27.4,M,0.000,M,,*72
$GPRMC,100257,A,3221.067610,N,3452.710520,E,0.0,314.15,010416,,*19
$GPGGA,100402,3221.704120,N,3451.937860,E,1,4,1.00,18.1,M,0.000,M,,*7A
$GPRMC,100402,A,3221.704120,N,3451.937860,E,0.0,355.90,010416,,*10
$GPGGA,100507,3222.471140,N,3451.873120,E,1,4,1.00,15.3,M,0.000,M,,*79
$GPRMC,100507,A,3222.471140,N,3451.873120,E,0.0,11.43,010416,,*21
$GPGGA,100612,3223.134340,N,3452.031100,E,1,4,1.00,7.8,M,0.000,M,,*4E
$GPRMC,100612,A,3223.134340,N,3452.031100,E,0.0,26.14,010416,,*28
$GPGGA,100717,3223.951410,N,3452.503760,E,1,4,1.00,10.2,M,0.000,M,,*7B
$GPRMC,100717,A,3223.951410,N,3452.503760,E,0.0,31.40,010416,,*26
$GPGGA,100822,3224.650060,N,3453.006560,E,1,4,1.00,28.1,M,0.000,M,,*73
$GPRMC,100822,A,3224.650060,N,3453.006560,E,0.0,10.90,010416,,*28
$GPGGA,100927,3225.482250,N,3453.195520,E,1,4,1.00,17.9,M,0.000,M,,*71
$GPRMC,100927,A,3225.482250,N,3453.195520,E,0.0,15.50,010416,,*27
$GPGGA,101031,3226.275650,N,3453.454960,E,1,4,1.00,21.5,M,0.000,M,,*7E
$GPRMC,101031,A,3226.275650,N,3453.454960,E,0.0,8.94,010416,,*15
$GPGGA,101136,3227.260930,N,3453.637830,E,1,4,1.00,30.5,M,0.000,M,,*77
$GPRMC,101136,A,3227.260930,N,3453.637830,E,0.0,13.69,010416,,*24
$GPGGA,101241,3228.194830,N,3453.906240,E,1,4,1.00,20.8,M,0.000,M,,*7E
$GPRMC,101241,A,3228.194830,N,3453.906240,E,0.0,347.10,010416,,*1D
$GPGGA,101347,3228.433500,N,3453.841780,E,1,4,1.00,15.7,M,0.000,M,,*7D
$GPRMC,101347,A,3228.433500,N,3453.841780,E,0.0,340.29,010416,,*1A
$GPGGA,101452,3228.965800,N,3453.616840,E,1,4,1.00,5.6,M,0.000,M,,*42
$GPRMC,101452,A,3228.965800,N,3453.616840,E,0.0,72.13,010416,,*2E
$GPGGA,101556,3229.067610,N,3453.989340,E,1,4,1.00,16.4,M,0.000,M,,*70
$GPRMC,101556,A,3229.067610,N,3453.989340,E,0.0,70.26,010416,,*28
$GPGGA,101701,3229.168190,N,3454.320120,E,1,4,1.00,27.6,M,0.000,M,,*7B
$GPRMC,101701,A,3229.168190,N,3454.320120,E,0.0,50.99,010416,,*25
$GPGGA,101805,3229.224270,N,3454.401800,E,1,4,1.00,24.9,M,0.000,M,,*75
$GPRMC,101805,A,3229.224270,N,3454.401800,E,0.0,89.80,010416,,*2B
$GPGGA,101909,3229.224360,N,3454.432770,E,1,4,1.00,24.0,M,0.000,M,,*79
$GPRMC,101909,A,3229.224360,N,3454.432770,E,0.0,55.90,010416,,*2E
$GPGGA,102013,3229.225760,N,3454.435210,E,1,4,1.00,23.0,M,0.000,M,,*7E
$GPRMC,102013,A,3229.225760,N,3454.435210,E,0.0,233.31,010416,,*17
$GPGGA,102117,3229.225520,N,3454.434830,E,1,4,1.00,22.6,M,0.000,M,,*73
$GPRMC,102117,A,3229.225520,N,3454.434830,E,0.0,172.06,010416,,*1F
$GPGGA,102220,3229.218650,N,3454.435960,E,1,4,1.00,23.0,M,0.000,M,,*7C
$GPRMC,102220,A,3229.218650,N,3454.435960,E,0.0,0.00,010416,,*15
$GPGGA,102324,3229.218650,N,3454.435960,E,1,4,1.00,23.8,M,0.000,M,,*71
$GPRMC,102324,A,3229.218650,N,3454.435960,E,0.0,0.00,010416,,*10
$GPGGA,102428,3229.218650,N,3454.435960,E,1,4,1.00,23.9,M,0.000,M,,*7B
$GPRMC,102428,A,3229.218650,N,3454.435960,E,0.0,0.00,010416,,*1B
$GPGGA,102532,3229.218650,N,3454.435960,E,1,4,1.00,27.3,M,0.000,M,,*7F
$GPRMC,102532,A,3229.218650,N,3454.435960,E,0.0,0.00,010416,,*11
$GPGGA,102636,3229.218650,N,3454.435960,E,1,4,1.00,28.1,M,0.000,M,,*75
$GPRMC,102636,A,3229.218650,N,3454.435960,E,,,010416,,*26
