$GPRMC,165914.196,V,3854.931,N,07702.498,W,74.2,3.66,240416,,E*42
$GPGGA,165915.196,3854.931,N,07702.498,W,0,00,,,M,,M,,*56
$GPGLL,3854.931,N,07702.498,W,165916.196,V*35
$GPVTG,3.66,T,,M,74.2,N,137.5,K*62
$GPRMC,165918.196,V,3854.933,N,07702.499,W,24.4,3.64,240416,,E*4C
$GPGGA,165919.196,3854.933,N,07702.499,W,0,00,,,M,,M,,*59
$GPGLL,3854.933,N,07702.499,W,165920.196,V*33
$GPVTG,3.64,T,,M,24.4,N,45.2,K*50
$GPRMC,165922.196,V,3854.934,N,07702.500,W,74.1,3.67,240416,,E*40
$GPGGA,165923.196,3854.934,N,07702.500,W,0,00,,,M,,M,,*56
$GPGLL,3854.934,N,07702.500,W,165924.196,V*31
$GPVTG,3.67,T,,M,74.1,N,137.3,K*66
$GPRMC,165926.196,V,3854.936,N,07702.501,W,37.2,3.68,240416,,E*4C
$GPGGA,165927.196,3854.936,N,07702.501,W,0,00,,,M,,M,,*51
$GPGLL,3854.936,N,07702.501,W,165928.196,V*3E
$GPVTG,3.68,T,,M,37.2,N,68.9,K*5C
$GPRMC,165930.196,V,3854.937,N,07702.502,W,72.5,3.67,240416,,E*40
$GPGGA,165931.196,3854.937,N,07702.502,W,0,00,,,M,,M,,*54
$GPGLL,3854.937,N,07702.502,W,165932.196,V*37
$GPVTG,3.67,T,,M,72.5,N,134.2,K*66
$GPRMC,165934.196,V,3854.939,N,07702.503,W,10.6,3.60,240416,,E*4B
$GPGGA,165935.196,3854.939,N,07702.503,W,0,00,,,M,,M,,*5F
$GPGLL,3854.939,N,07702.503,W,165936.196,V*3C
$GPVTG,3.60,T,,M,10.6,N,19.7,K*5D
$GPRMC,165938.196,V,3854.940,N,07702.504,W,53.2,3.28,240416,,E*41
$GPGGA,165939.196,3854.940,N,07702.504,W,0,00,,,M,,M,,*5A
$GPGLL,3854.940,N,07702.504,W,165940.196,V*34
$GPVTG,3.28,T,,M,53.2,N,98.5,K*59
$GPRMC,165942.196,V,3854.941,N,07702.505,W,84.1,3.69,240416,,E*40
$GPGGA,165943.196,3854.941,N,07702.505,W,0,00,,,M,,M,,*57
$GPGLL,3854.941,N,07702.505,W,165944.196,V*30
$GPVTG,3.69,T,,M,84.1,N,155.7,K*67
$GPGSA,A,3,12,04,18,12,10,08,,,,,,,0.5,0.4,0.3*34
$GPGSV,2,1,06,12,75,089,62,04,79,150,37,18,19,260,38,12,60,357,37*7C
$GPGSV,2,2,06,10,32,319,65,08,17,074,61*7D
$GPRMC,165949.196,V,3854.943,N,07702.506,W,24.6,3.72,240416,,E*4D
$GPGGA,165950.196,3854.943,N,07702.506,W,0,04,0.4,,M,,M,,*7A
$GPGLL,3854.943,N,07702.506,W,165951.196,V*35
$GPVTG,3.72,T,,M,24.6,N,45.5,K*52
$GPRMC,165953.196,V,3854.945,N,07702.507,W,19.8,3.81,240416,,E*4D
$GPGGA,165954.196,3854.945,N,07702.507,W,0,04,0.4,,M,,M,,*79
$GPGLL,3854.945,N,07702.507,W,165955.196,V*36
$GPVTG,3.81,T,,M,19.8,N,36.6,K*59
$GPGSA,A,2,12,04,18,12,10,08,,,,,,,0.8,0.8,0.8*3F
$GPGSV,2,1,06,12,12,048,29,04,35,160,81,18,39,261,85,12,65,329,48*78
$GPGSV,2,2,06,10,37,225,45,08,08,315,66*79
$GPRMC,170000.196,V,3854.946,N,07702.507,W,82.9,3.72,240416,,E*4A
$GPGGA,170001.196,3854.946,N,07702.507,W,0,04,0.8,,M,,M,,*7B
$GPGLL,3854.946,N,07702.507,W,170002.196,V*3A
$GPVTG,3.72,T,,M,82.9,N,153.5,K*67
$GPRMC,170004.196,V,3854.948,N,07702.508,W,48.2,3.69,240416,,E*48
$GPGGA,170005.196,3854.948,N,07702.508,W,0,04,0.8,,M,,M,,*7E
$GPGLL,3854.948,N,07702.508,W,170006.196,V*3F
$GPVTG,3.69,T,,M,48.2,N,89.3,K*50
$GPGSA,A,3,12,04,18,12,10,08,,,,,,,0.3,0.1,0.0*34
$GPGSV,2,1,06,12,43,162,43,04,24,281,83,18,51,048,49,12,66,115,21*71
$GPGSV,2,2,06,10,57,031,55,08,27,316,56*74
$GPRMC,170011.196,V,3854.949,N,07702.509,W,4.1,3.66,240416,,E*78
$GPGGA,170012.196,3854.949,N,07702.509,W,0,04,0.1,,M,,M,,*71
$GPGLL,3854.949,N,07702.509,W,170013.196,V*3B
$GPVTG,3.66,T,,M,4.1,N,7.5,K*54
$GPRMC,170015.196,V,3854.951,N,07702.510,W,58.8,3.77,240416,,E*4D
$GPGGA,170016.196,3854.951,N,07702.510,W,0,04,0.1,,M,,M,,*74
$GPGLL,3854.951,N,07702.510,W,170017.196,V*3E
$GPVTG,3.77,T,,M,58.8,N,108.9,K*66
$GPGSA,A,2,12,04,18,12,10,08,,,,,,,0.7,0.2,0.3*31
$GPGSV,2,1,06,12,43,124,80,04,06,214,73,18,75,270,59,12,26,342,67*77
$GPGSV,2,2,06,10,63,256,53,08,37,014,59*79
$GPRMC,170022.196,V,3854.953,N,07702.511,W,44.2,3.73,240416,,E*49
$GPGGA,170023.196,3854.953,N,07702.511,W,0,04,0.2,,M,,M,,*72
$GPGLL,3854.953,N,07702.511,W,170024.196,V*3D
$GPVTG,3.73,T,,M,44.2,N,81.8,K*54
$GPRMC,170026.196,V,3854.954,N,07702.511,W,56.4,3.80,240416,,E*43
$GPGGA,170027.196,3854.954,N,07702.511,W,0,04,0.2,,M,,M,,*71
$GPGLL,3854.954,N,07702.511,W,170028.196,V*36
$GPVTG,3.80,T,,M,56.4,N,104.5,K*6C
$GPRMC,170030.196,V,3854.956,N,07702.512,W,9.1,3.83,240416,,E*79
$GPGGA,170031.196,3854.956,N,07702.512,W,0,04,0.2,,M,,M,,*77
$GPGLL,3854.956,N,07702.512,W,170032.196,V*3C
$GPVTG,3.83,T,,M,9.1,N,16.8,K*6F
$GPGSA,A,3,12,04,18,12,10,08,,,,,,,0.9,0.7,0.3*3B
$GPGSV,2,1,06,12,45,333,65,04,85,216,15,18,85,215,44,12,42,184,85*71
$GPGSV,2,2,06,10,78,323,79,08,23,321,63*71
$GPRMC,170037.196,V,3854.958,N,07702.512,W,77.8,3.79,240416,,E*45
$GPGGA,170038.196,3854.958,N,07702.512,W,0,04,0.7,,M,,M,,*75
$GPGLL,3854.958,N,07702.512,W,170039.196,V*39
$GPVTG,3.79,T,,M,77.8,N,144.1,K*65
$GPRMC,170041.196,V,3854.959,N,07702.514,W,4.1,3.30,240416,,E*73
$GPGGA,170042.196,3854.959,N,07702.514,W,0,04,0.7,,M,,M,,*7F
$GPGLL,3854.959,N,07702.514,W,170043.196,V*33
$GPVTG,3.30,T,,M,4.1,N,7.5,K*57
$GPRMC,170045.196,V,3854.959,N,07702.515,W,32.1,3.24,240416,,E*46
$GPGGA,170046.196,3854.959,N,07702.515,W,0,04,0.7,,M,,M,,*7A
$GPGLL,3854.959,N,07702.515,W,170047.196,V*36
$GPVTG,3.24,T,,M,32.1,N,59.5,K*5C
$GPRMC,170049.196,V,3854.960,N,07702.517,W,5.6,3.30,240416,,E*74
$GPGGA,170050.196,3854.960,N,07702.517,W,0,04,0.7,,M,,M,,*75
$GPGLL,3854.960,N,07702.517,W,170051.196,V*39
$GPVTG,3.30,T,,M,5.6,N,10.4,K*66
$GPRMC,170053.196,V,3854.961,N,07702.519,W,72.5,3.27,240416,,E*45
$GPGGA,170054.196,3854.961,N,07702.519,W,0,04,0.7,,M,,M,,*7E
$GPGLL,3854.961,N,07702.519,W,170055.196,V*32
$GPVTG,3.27,T,,M,72.5,N,134.3,K*63
$GPRMC,170057.196,V,3854.962,N,07702.520,W,83.2,3.21,240416,,E*47
$GPGGA,170058.196,3854.962,N,07702.520,W,0,04,0.7,,M,,M,,*7B
$GPGLL,3854.962,N,07702.520,W,170059.196,V*37
$GPVTG,3.21,T,,M,83.2,N,154.2,K*6B
$GPRMC,170101.196,V,3854.962,N,07702.522,W,66.5,3.19,240416,,E*40
$GPGGA,170102.196,3854.962,N,07702.522,W,0,04,0.7,,M,,M,,*77
$GPGLL,3854.962,N,07702.522,W,170103.196,V*3B
$GPVTG,3.19,T,,M,66.5,N,123.1,K*6F
$GPRMC,170105.196,V,3854.964,N,07702.523,W,2.9,3.67,240416,,E*74
$GPGGA,170106.196,3854.964,N,07702.523,W,0,04,0.7,,M,,M,,*74
$GPGLL,3854.964,N,07702.523,W,170107.196,V*38
$GPVTG,3.67,T,,M,2.9,N,5.3,K*5F
$GPRMC,170109.196,V,3854.965,N,07702.524,W,0.9,3.67,240416,,E*7C
$GPGGA,170110.196,3854.965,N,07702.524,W,0,04,0.7,,M,,M,,*75
$GPGLL,3854.965,N,07702.524,W,170111.196,V*39
$GPVTG,3.67,T,,M,0.9,N,1.6,K*5C
$GPRMC,170113.196,V,3854.967,N,07702.525,W,92.3,3.67,240416,,E*45
$GPGGA,170114.196,3854.967,N,07702.525,W,0,04,0.7,,M,,M,,*72
$GPGLL,3854.967,N,07702.525,W,170115.196,V*3E
$GPVTG,3.67,T,,M,92.3,N,170.9,K*65
$GPRMC,170117.196,V,3854.968,N,07702.525,W,76.3,3.76,240416,,E*44
$GPGGA,170118.196,3854.968,N,07702.525,W,0,04,0.7,,M,,M,,*71
$GPGLL,3854.968,N,07702.525,W,170119.196,V*3D
$GPVTG,3.76,T,,M,76.3,N,141.3,K*67
$GPRMC,170121.196,V,3854.970,N,07702.526,W,15.3,3.78,240416,,E*40
$GPGGA,170122.196,3854.970,N,07702.526,W,0,04,0.7,,M,,M,,*72
$GPGLL,3854.970,N,07702.526,W,170123.196,V*3E
$GPVTG,3.78,T,,M,15.3,N,28.3,K*52
$GPRMC,170125.196,V,3854.972,N,07702.527,W,93.7,3.79,240416,,E*4C
$GPGGA,170126.196,3854.972,N,07702.527,W,0,04,0.7,,M,,M,,*75
$GPGLL,3854.972,N,07702.527,W,170127.196,V*39
$GPVTG,3.79,T,,M,93.7,N,173.6,K*63
$GPRMC,170129.196,V,3854.974,N,07702.527,W,92.2,3.79,240416,,E*42
$GPGGA,170130.196,3854.974,N,07702.527,W,0,04,0.7,,M,,M,,*74
$GPGLL,3854.974,N,07702.527,W,170131.196,V*38
$GPVTG,3.79,T,,M,92.2,N,170.7,K*65
$GPRMC,170133.196,V,3854.975,N,07702.528,W,22.2,3.88,240416,,E*42
$GPGGA,170134.196,3854.975,N,07702.528,W,0,04,0.7,,M,,M,,*7E
$GPGLL,3854.975,N,07702.528,W,170135.196,V*32
$GPVTG,3.88,T,,M,22.2,N,41.1,K*55
$GPRMC,170137.196,V,3854.977,N,07702.528,W,68.4,3.82,240416,,E*46
$GPGGA,170138.196,3854.977,N,07702.528,W,0,04,0.7,,M,,M,,*70
$GPGLL,3854.977,N,07702.528,W,170139.196,V*3C
$GPVTG,3.82,T,,M,68.4,N,126.7,K*61
$GPRMC,170141.196,V,3854.979,N,07702.528,W,90.1,3.90,240416,,E*48
$GPGGA,170142.196,3854.979,N,07702.528,W,0,04,0.7,,M,,M,,*73
$GPGLL,3854.979,N,07702.528,W,170143.196,V*3F
$GPVTG,3.90,T,,M,90.1,N,166.8,K*6B
$GPRMC,170145.196,V,3854.981,N,07702.529,W,41.2,3.85,240416,,E*41
$GPGGA,170146.196,3854.981,N,07702.529,W,0,04,0.7,,M,,M,,*71
$GPGLL,3854.981,N,07702.529,W,170147.196,V*3D
$GPVTG,3.85,T,,M,41.2,N,76.2,K*5A
$GPGSA,A,3,12,04,18,12,10,08,,,,,,,1.0,0.1,0.6*30
$GPGSV,2,1,06,12,84,237,43,04,20,018,67,18,59,298,50,12,06,266,19*70
$GPGSV,2,2,06,10,84,043,26,08,28,334,42*71
$GPRMC,170152.196,V,3854.982,N,07702.529,W,90.0,3.81,240416,,E*4E
$GPGGA,170153.196,3854.982,N,07702.529,W,0,04,0.1,,M,,M,,*70
$GPGLL,3854.982,N,07702.529,W,170154.196,V*3C
$GPVTG,3.81,T,,M,90.0,N,166.7,K*65
$GPGSA,A,3,12,04,18,12,10,08,,,,,,,0.5,0.5,0.4*32
$GPGSV,2,1,06,12,10,193,58,04,10,255,59,18,37,022,51,12,17,028,58*78
$GPGSV,2,2,06,10,71,282,74,08,14,246,32*7F
$GPRMC,170159.196,V,3854.984,N,07702.530,W,62.9,3.77,240416,,E*46
$GPGGA,170200.196,3854.984,N,07702.530,W,0,04,0.5,,M,,M,,*7F
$GPGLL,3854.984,N,07702.530,W,170201.196,V*31
$GPVTG,3.77,T,,M,62.9,N,116.5,K*6D
$GPRMC,170203.196,V,3854.986,N,07702.530,W,6.9,3.84,240416,,E*76
$GPGGA,170204.196,3854.986,N,07702.530,W,0,04,0.5,,M,,M,,*79
$GPGLL,3854.986,N,07702.530,W,170205.196,V*37
$GPVTG,3.84,T,,M,6.9,N,12.8,K*6B
$GPRMC,170207.196,V,3854.987,N,07702.531,W,60.2,3.81,240416,,E*4C
$GPGGA,170208.196,3854.987,N,07702.531,W,0,04,0.5,,M,,M,,*75
$GPGLL,3854.987,N,07702.531,W,170209.196,V*3B
$GPVTG,3.81,T,,M,60.2,N,111.5,K*6A
$GPRMC,170211.196,V,3854.989,N,07702.531,W,15.3,3.89,240416,,E*4E
$GPGGA,170212.196,3854.989,N,07702.531,W,0,04,0.5,,M,,M,,*70
$GPGLL,3854.989,N,07702.531,W,170213.196,V*3E
$GPVTG,3.89,T,,M,15.3,N,28.3,K*5C
$GPGSA,A,3,12,04,18,12,10,08,,,,,,,0.5,0.4,0.7*30
$GPGSV,2,1,06,12,80,140,76,04,82,356,58,18,41,184,16,12,30,280,21*7F
$GPGSV,2,2,06,10,86,075,86,08,63,017,21*74
$GPRMC,170218.196,V,3854.991,N,07702.532,W,49.8,3.86,240416,,E*40
$GPGGA,170219.196,3854.991,N,07702.532,W,0,04,0.4,,M,,M,,*70
$GPGLL,3854.991,N,07702.532,W,170220.196,V*34
$GPVTG,3.86,T,,M,49.8,N,92.2,K*51
$GPRMC,170222.196,V,3854.993,N,07702.532,W,25.8,3.91,240416,,E*47
$GPGGA,170223.196,3854.993,N,07702.532,W,0,04,0.4,,M,,M,,*7B
$GPGLL,3854.993,N,07702.532,W,170224.196,V*32
$GPVTG,3.91,T,,M,25.8,N,47.8,K*5F
$GPRMC,170226.196,V,3854.994,N,07702.532,W,93.6,3.81,240416,,E*46
$GPGGA,170227.196,3854.994,N,07702.532,W,0,04,0.4,,M,,M,,*78
$GPGLL,3854.994,N,07702.532,W,170228.196,V*39
$GPVTG,3.81,T,,M,93.6,N,173.4,K*67
$GPGSA,A,3,12,04,18,12,10,08,,,,,,,1.0,1.0,0.3*35
$GPGSV,2,1,06,12,16,283,24,04,44,161,89,18,76,042,52,12,24,051,20*7E
$GPGSV,2,2,06,10,70,351,22,08,33,116,50*75
$GPRMC,170233.196,V,3854.996,N,07702.533,W,94.5,3.80,240416,,E*44
$GPGGA,170234.196,3854.996,N,07702.533,W,0,04,1.0,,M,,M,,*7C
$GPGLL,3854.996,N,07702.533,W,170235.196,V*36
$GPVTG,3.80,T,,M,94.5,N,175.0,K*60
$GPRMC,170237.196,V,3854.998,N,07702.533,W,21.0,3.84,240416,,E*41
$GPGGA,170238.196,3854.998,N,07702.533,W,0,04,1.0,,M,,M,,*7E
$GPGLL,3854.998,N,07702.533,W,170239.196,V*34
$GPVTG,3.84,T,,M,21.0,N,38.9,K*5E
$GPRMC,170241.196,V,3855.000,N,07702.534,W,58.2,3.92,240416,,E*45
$GPGGA,170242.196,3855.000,N,07702.534,W,0,04,1.0,,M,,M,,*7D
$GPGLL,3855.000,N,07702.534,W,170243.196,V*37
$GPVTG,3.92,T,,M,58.2,N,107.9,K*68
$GPRMC,170245.196,V,3855.001,N,07702.534,W,55.3,4.02,240416,,E*42
$GPGGA,170246.196,3855.001,N,07702.534,W,0,04,1.0,,M,,M,,*78
$GPGLL,3855.001,N,07702.534,W,170247.196,V*32
$GPVTG,4.02,T,,M,55.3,N,102.3,K*65
$GPRMC,170249.196,V,3855.003,N,07702.533,W,2.1,4.12,240416,,E*7A
$GPGGA,170250.196,3855.003,N,07702.533,W,0,04,1.0,,M,,M,,*7A
$GPGLL,3855.003,N,07702.533,W,170251.196,V*30
$GPVTG,4.12,T,,M,2.1,N,3.8,K*5F
$GPRMC,170253.196,V,3855.005,N,07702.533,W,13.7,4.05,240416,,E*47
$GPGGA,170254.196,3855.005,N,07702.533,W,0,04,1.0,,M,,M,,*78
$GPGLL,3855.005,N,07702.533,W,170255.196,V*32
$GPVTG,4.05,T,,M,13.7,N,25.4,K*57
$GPRMC,170257.196,V,3855.007,N,07702.533,W,92.2,3.98,240416,,E*4E
$GPGGA,170258.196,3855.007,N,07702.533,W,0,04,1.0,,M,,M,,*76
$GPGLL,3855.007,N,07702.533,W,170259.196,V*3C
$GPVTG,3.98,T,,M,92.2,N,170.7,K*6A
$GPRMC,170301.196,V,3855.009,N,07702.533,W,24.7,3.93,240416,,E*41
$GPGGA,170302.196,3855.009,N,07702.533,W,0,04,1.0,,M,,M,,*76
$GPGLL,3855.009,N,07702.533,W,170303.196,V*3C
$GPVTG,3.93,T,,M,24.7,N,45.8,K*51
$GPRMC,170305.196,V,3855.010,N,07702.533,W,1.6,3.99,240416,,E*71
$GPGGA,170306.196,3855.010,N,07702.533,W,0,04,1.0,,M,,M,,*7A
$GPGLL,3855.010,N,07702.533,W,170307.196,V*30
$GPVTG,3.99,T,,M,1.6,N,2.9,K*5F
$GPRMC,170309.196,V,3855.012,N,07702.533,W,51.6,4.08,240416,,E*45
$GPGGA,170310.196,3855.012,N,07702.533,W,0,04,1.0,,M,,M,,*7F
$GPGLL,3855.012,N,07702.533,W,170311.196,V*35
$GPVTG,4.08,T,,M,51.6,N,95.5,K*57
$GPRMC,170313.196,V,3855.014,N,07702.533,W,22.3,4.13,240416,,E*43
$GPGGA,170314.196,3855.014,N,07702.533,W,0,04,1.0,,M,,M,,*7D
$GPGLL,3855.014,N,07702.533,W,170315.196,V*37
$GPVTG,4.13,T,,M,22.3,N,41.3,K*53
$GPGSA,A,2,12,04,18,12,10,08,,,,,,,0.1,0.5,0.6*35
$GPGSV,2,1,06,12,32,196,69,04,06,352,16,18,86,330,38,12,15,241,20*70
$GPGSV,2,2,06,10,27,301,21,08,82,342,70*7A
$GPRMC,170320.196,V,3855.016,N,07702.532,W,66.7,4.18,240416,,E*4F
$GPGGA,170321.196,3855.016,N,07702.532,W,0,04,0.5,,M,,M,,*7C
$GPGLL,3855.016,N,07702.532,W,170322.196,V*30
$GPVTG,4.18,T,,M,66.7,N,123.6,K*6C
$GPRMC,170324.196,V,3855.017,N,07702.532,W,64.2,4.18,240416,,E*4D
$GPGGA,170325.196,3855.017,N,07702.532,W,0,04,0.5,,M,,M,,*79
$GPGLL,3855.017,N,07702.532,W,170326.196,V*35
$GPVTG,4.18,T,,M,64.2,N,118.9,K*6C
$GPGSA,A,2,12,04,18,12,10,08,,,,,,,0.9,0.1,0.2*3D
$GPGSV,2,1,06,12,63,044,16,04,72,208,84,18,10,059,59,12,80,128,49*7F
$GPGSV,2,2,06,10,70,008,20,08,25,121,51*7A
$GPRMC,170331.196,V,3855.019,N,07702.531,W,79.0,4.25,240416,,E*44
$GPGGA,170332.196,3855.019,N,07702.531,W,0,04,0.1,,M,,M,,*76
$GPGLL,3855.019,N,07702.531,W,170333.196,V*3C
$GPVTG,4.25,T,,M,79.0,N,146.3,K*6D
$GPRMC,170335.196,V,3855.021,N,07702.530,W,99.0,4.34,240416,,E*44
$GPGGA,170336.196,3855.021,N,07702.530,W,0,04,0.1,,M,,M,,*78
$GPGLL,3855.021,N,07702.530,W,170337.196,V*32
$GPVTG,4.34,T,,M,99.0,N,183.4,K*6D
$GPRMC,170339.196,V,3855.022,N,07702.529,W,56.4,4.42,240416,,E*45
$GPGGA,170340.196,3855.022,N,07702.529,W,0,04,0.1,,M,,M,,*72
$GPGLL,3855.022,N,07702.529,W,170341.196,V*38
$GPVTG,4.42,T,,M,56.4,N,104.5,K*65
$GPGSA,A,2,12,04,18,12,10,08,,,,,,,0.1,0.2,0.3*37
$GPGSV,2,1,06,12,58,319,19,04,35,079,73,18,57,060,55,12,81,046,19*74
$GPGSV,2,2,06,10,84,267,87,08,26,307,49*7B
$GPRMC,170346.196,V,3855.023,N,07702.528,W,22.4,4.53,240416,,E*4E
$GPGGA,170347.196,3855.023,N,07702.528,W,0,04,0.2,,M,,M,,*76
$GPGLL,3855.023,N,07702.528,W,170348.196,V*31
$GPVTG,4.53,T,,M,22.4,N,41.5,K*56
$GPRMC,170350.196,V,3855.025,N,07702.527,W,58.2,4.44,240416,,E*4D
$GPGGA,170351.196,3855.025,N,07702.527,W,0,04,0.2,,M,,M,,*78
$GPGLL,3855.025,N,07702.527,W,170352.196,V*33
$GPVTG,4.44,T,,M,58.2,N,107.7,K*6A
$GPRMC,170354.196,V,3855.026,N,07702.525,W,98.5,4.53,240416,,E*45
$GPGGA,170355.196,3855.026,N,07702.525,W,0,04,0.2,,M,,M,,*7D
$GPGLL,3855.026,N,07702.525,W,170356.196,V*36
$GPVTG,4.53,T,,M,98.5,N,182.5,K*68
$GPRMC,170358.196,V,3855.027,N,07702.524,W,39.4,4.46,240416,,E*47
$GPGGA,170359.196,3855.027,N,07702.524,W,0,04,0.2,,M,,M,,*71
$GPGLL,3855.027,N,07702.524,W,170400.196,V*32
$GPVTG,4.46,T,,M,39.4,N,72.9,K*54
$GPRMC,170402.196,V,3855.028,N,07702.523,W,40.6,4.53,240416,,E*4F
$GPGGA,170403.196,3855.028,N,07702.523,W,0,04,0.2,,M,,M,,*71
$GPGLL,3855.028,N,07702.523,W,170404.196,V*3E
$GPVTG,4.53,T,,M,40.6,N,75.1,K*53
$GPRMC,170406.196,V,3855.029,N,07702.521,W,39.8,4.63,240416,,E*4B
$GPGGA,170407.196,3855.029,N,07702.521,W,0,04,0.2,,M,,M,,*76
$GPGLL,3855.029,N,07702.521,W,170408.196,V*31
$GPVTG,4.63,T,,M,39.8,N,73.7,K*50
$GPRMC,170410.196,V,3855.030,N,07702.520,W,88.2,4.70,240416,,E*47
$GPGGA,170411.196,3855.030,N,07702.520,W,0,04,0.2,,M,,M,,*78
$GPGLL,3855.030,N,07702.520,W,170412.196,V*33
$GPVTG,4.70,T,,M,88.2,N,163.4,K*61
$GPRMC,170414.196,V,3855.031,N,07702.518,W,85.5,4.80,240416,,E*4C
$GPGGA,170415.196,3855.031,N,07702.518,W,0,04,0.2,,M,,M,,*76
$GPGLL,3855.031,N,07702.518,W,170416.196,V*3D
$GPVTG,4.80,T,,M,85.5,N,158.4,K*6C
$GPRMC,170418.196,V,3855.031,N,07702.516,W,99.6,4.91,240416,,E*40
$GPGGA,170419.196,3855.031,N,07702.516,W,0,04,0.2,,M,,M,,*74
$GPGLL,3855.031,N,07702.516,W,170420.196,V*36
$GPVTG,4.91,T,,M,99.6,N,184.4,K*63
$GPRMC,170422.196,V,3855.031,N,07702.514,W,17.3,5.01,240416,,E*40
$GPGGA,170423.196,3855.031,N,07702.514,W,0,04,0.2,,M,,M,,*7F
$GPGLL,3855.031,N,07702.514,W,170424.196,V*30
$GPVTG,5.01,T,,M,17.3,N,32.0,K*50
$GPRMC,170426.196,V,3855.031,N,07702.513,W,64.4,5.05,240416,,E*44
$GPGGA,170427.196,3855.031,N,07702.513,W,0,04,0.2,,M,,M,,*7C
$GPGLL,3855.031,N,07702.513,W,170428.196,V*3B
$GPVTG,5.05,T,,M,64.4,N,119.2,K*6D
$GPRMC,170430.196,V,3855.032,N,07702.511,W,76.6,4.63,240416,,E*42
$GPGGA,170431.196,3855.032,N,07702.511,W,0,04,0.2,,M,,M,,*7A
$GPGLL,3855.032,N,07702.511,W,170432.196,V*31
$GPVTG,4.63,T,,M,76.6,N,141.9,K*6B
$GPRMC,170434.196,V,3855.033,N,07702.510,W,89.8,4.35,240416,,E*4B
$GPGGA,170435.196,3855.033,N,07702.510,W,0,04,0.2,,M,,M,,*7E
$GPGLL,3855.033,N,07702.510,W,170436.196,V*35
$GPVTG,4.35,T,,M,89.8,N,166.3,K*69
$GPRMC,170438.196,V,3855.035,N,07702.509,W,75.1,4.26,240416,,E*41
$GPGGA,170439.196,3855.035,N,07702.509,W,0,04,0.2,,M,,M,,*7C
$GPGLL,3855.035,N,07702.509,W,170440.196,V*3A
$GPVTG,4.26,T,,M,75.1,N,139.2,K*6A
$GPGSA,A,2,12,04,18,12,10,08,,,,,,,0.7,0.1,0.2*33
$GPGSV,2,1,06,12,36,282,84,04,26,333,54,18,86,048,31,12,62,181,42*7C
$GPGSV,2,2,06,10,57,230,54,08,34,248,74*7E
$GPRMC,170445.196,V,3855.037,N,07702.509,W,73.5,4.22,240416,,E*4F
$GPGGA,170446.196,3855.037,N,07702.509,W,0,04,0.1,,M,,M,,*75
$GPGLL,3855.037,N,07702.509,W,170447.196,V*3F
$GPVTG,4.22,T,,M,73.5,N,136.0,K*61
$GPRMC,170449.196,V,3855.038,N,07702.508,W,2.3,4.22,240416,,E*7D
$GPGGA,170450.196,3855.038,N,07702.508,W,0,04,0.1,,M,,M,,*7C
$GPGLL,3855.038,N,07702.508,W,170451.196,V*36
$GPVTG,4.22,T,,M,2.3,N,4.2,K*53
$GPRMC,170453.196,V,3855.040,N,07702.508,W,97.9,4.14,240416,,E*4A
$GPGGA,170454.196,3855.040,N,07702.508,W,0,04,0.1,,M,,M,,*77
$GPGLL,3855.040,N,07702.508,W,170455.196,V*3D
$GPVTG,4.14,T,,M,97.9,N,181.3,K*6D
$GPRMC,170457.196,V,3855.042,N,07702.507,W,7.7,4.16,240416,,E*76
$GPGGA,170458.196,3855.042,N,07702.507,W,0,04,0.1,,M,,M,,*76
$GPGLL,3855.042,N,07702.507,W,170459.196,V*3C
$GPVTG,4.16,T,,M,7.7,N,14.3,K*65
$GPRMC,170501.196,V,3855.044,N,07702.507,W,7.1,4.09,240416,,E*7A
$GPGGA,170502.196,3855.044,N,07702.507,W,0,04,0.1,,M,,M,,*7E
$GPGLL,3855.044,N,07702.507,W,170503.196,V*34
$GPVTG,4.09,T,,M,7.1,N,13.2,K*6B
$GPRMC,170505.196,V,3855.046,N,07702.507,W,94.2,4.13,240416,,E*4E
$GPGGA,170506.196,3855.046,N,07702.507,W,0,04,0.1,,M,,M,,*78
$GPGLL,3855.046,N,07702.507,W,170507.196,V*32
$GPVTG,4.13,T,,M,94.2,N,174.5,K*6E
$GPRMC,170509.196,V,3855.047,N,07702.506,W,30.5,4.20,240416,,E*4B
$GPGGA,170510.196,3855.047,N,07702.506,W,0,04,0.1,,M,,M,,*7F
$GPGLL,3855.047,N,07702.506,W,170511.196,V*35
$GPVTG,4.20,T,,M,30.5,N,56.4,K*57
$GPRMC,170513.196,V,3855.049,N,07702.505,W,68.2,4.27,240416,,E*40
$GPGGA,170514.196,3855.049,N,07702.505,W,0,04,0.1,,M,,M,,*76
$GPGLL,3855.049,N,07702.505,W,170515.196,V*3C
$GPVTG,4.27,T,,M,68.2,N,126.3,K*6B
$GPRMC,170517.196,V,3855.050,N,07702.504,W,80.1,4.46,240416,,E*4F
$GPGGA,170518.196,3855.050,N,07702.504,W,0,04,0.1,,M,,M,,*73
$GPGLL,3855.050,N,07702.504,W,170519.196,V*39
$GPVTG,4.46,T,,M,80.1,N,148.3,K*61
$GPRMC,170521.196,V,3855.052,N,07702.503,W,98.0,4.47,240416,,E*46
$GPGGA,170522.196,3855.052,N,07702.503,W,0,04,0.1,,M,,M,,*7F
$GPGLL,3855.052,N,07702.503,W,170523.196,V*35
$GPVTG,4.47,T,,M,98.0,N,181.4,K*6A
$GPRMC,170525.196,V,3855.053,N,07702.502,W,34.3,4.42,240416,,E*42
$GPGGA,170526.196,3855.053,N,07702.502,W,0,04,0.1,,M,,M,,*7B
$GPGLL,3855.053,N,07702.502,W,170527.196,V*31
$GPVTG,4.42,T,,M,34.3,N,63.5,K*56
$GPRMC,170529.196,V,3855.055,N,07702.501,W,24.0,4.33,240416,,E*4F
$GPGGA,170530.196,3855.055,N,07702.501,W,0,04,0.1,,M,,M,,*79
$GPGLL,3855.055,N,07702.501,W,170531.196,V*33
$GPVTG,4.33,T,,M,24.0,N,44.4,K*56
$GPRMC,170533.196,V,3855.056,N,07702.500,W,63.4,4.28,240416,,E*4B
$GPGGA,170534.196,3855.056,N,07702.500,W,0,04,0.1,,M,,M,,*7F
$GPGLL,3855.056,N,07702.500,W,170535.196,V*35
$GPVTG,4.28,T,,M,63.4,N,117.5,K*6D
$GPRMC,170537.196,V,3855.058,N,07702.500,W,18.5,4.20,240416,,E*44
$GPGGA,170538.196,3855.058,N,07702.500,W,0,04,0.1,,M,,M,,*7D
$GPGLL,3855.058,N,07702.500,W,170539.196,V*37
$GPVTG,4.20,T,,M,18.5,N,34.2,K*5F
$GPRMC,170541.196,V,3855.060,N,07702.499,W,45.7,4.27,240416,,E*42
$GPGGA,170542.196,3855.060,N,07702.499,W,0,04,0.1,,M,,M,,*7A
$GPGLL,3855.060,N,07702.499,W,170543.196,V*30
$GPVTG,4.27,T,,M,45.7,N,84.7,K*5C
$GPGSA,A,3,12,04,18,12,10,08,,,,,,,0.6,0.4,0.1*35
$GPGSV,2,1,06,12,28,347,60,04,14,313,89,18,13,271,38,12,28,347,86*71
$GPGSV,2,2,06,10,14,067,32,08,75,355,45*73
$GPRMC,170548.196,V,3855.061,N,07702.498,W,14.1,4.32,240416,,E*4D
$GPGGA,170549.196,3855.061,N,07702.498,W,0,04,0.4,,M,,M,,*74
$GPGLL,3855.061,N,07702.498,W,170550.196,V*32
$GPVTG,4.32,T,,M,14.1,N,26.0,K*55
$GPRMC,170552.196,V,3855.063,N,07702.497,W,50.9,4.29,240416,,E*49
$GPGGA,170553.196,3855.063,N,07702.497,W,0,04,0.4,,M,,M,,*72
$GPGLL,3855.063,N,07702.497,W,170554.196,V*3B
$GPVTG,4.29,T,,M,50.9,N,94.4,K*5A
$GPRMC,170556.196,V,3855.064,N,07702.496,W,48.3,4.36,240416,,E*46
$GPGGA,170557.196,3855.064,N,07702.496,W,0,04,0.4,,M,,M,,*70
$GPGLL,3855.064,N,07702.496,W,170558.196,V*31
$GPVTG,4.36,T,,M,48.3,N,89.5,K*5A
$GPRMC,170600.196,V,3855.066,N,07702.495,W,62.6,4.35,240416,,E*49
$GPGGA,170601.196,3855.066,N,07702.495,W,0,04,0.4,,M,,M,,*71
$GPGLL,3855.066,N,07702.495,W,170602.196,V*3C
$GPVTG,4.35,T,,M,62.6,N,116.0,K*66
$GPRMC,170604.196,V,3855.067,N,07702.494,W,99.5,4.45,240416,,E*4D
$GPGGA,170605.196,3855.067,N,07702.494,W,0,04,0.4,,M,,M,,*75
$GPGLL,3855.067,N,07702.494,W,170606.196,V*38
$GPVTG,4.45,T,,M,99.5,N,184.3,K*6E
$GPRMC,170608.196,V,3855.068,N,07702.493,W,91.8,4.54,240416,,E*4C
$GPGGA,170609.196,3855.068,N,07702.493,W,0,04,0.4,,M,,M,,*71
$GPGLL,3855.068,N,07702.493,W,170610.196,V*37
$GPVTG,4.54,T,,M,91.8,N,170.1,K*62
$GPRMC,170612.196,V,3855.069,N,07702.491,W,31.0,4.56,240416,,E*44
$GPGGA,170613.196,3855.069,N,07702.491,W,0,04,0.4,,M,,M,,*79
$GPGLL,3855.069,N,07702.491,W,170614.196,V*30
$GPVTG,4.56,T,,M,31.0,N,57.5,K*52
$GPRMC,170616.196,V,3855.071,N,07702.490,W,86.4,4.52,240416,,E*44
$GPGGA,170617.196,3855.071,N,07702.490,W,0,04,0.4,,M,,M,,*75
$GPGLL,3855.071,N,07702.490,W,170618.196,V*34
$GPVTG,4.52,T,,M,86.4,N,160.0,K*6E
$GPRMC,170620.196,V,3855.072,N,07702.489,W,32.9,4.56,240416,,E*4C
$GPGGA,170621.196,3855.072,N,07702.489,W,0,04,0.4,,M,,M,,*7B
$GPGLL,3855.072,N,07702.489,W,170622.196,V*36
$GPVTG,4.56,T,,M,32.9,N,60.9,K*50
$GPRMC,170624.196,V,3855.073,N,07702.487,W,25.8,4.56,240416,,E*40
$GPGGA,170625.196,3855.073,N,07702.487,W,0,04,0.4,,M,,M,,*70
$GPGLL,3855.073,N,07702.487,W,170626.196,V*3D
$GPVTG,4.56,T,,M,25.8,N,47.8,K*53
$GPRMC,170628.196,V,3855.074,N,07702.486,W,9.0,4.53,240416,,E*79
$GPGGA,170629.196,3855.074,N,07702.486,W,0,04,0.4,,M,,M,,*7A
$GPGLL,3855.074,N,07702.486,W,170630.196,V*3C
$GPVTG,4.53,T,,M,9.0,N,16.7,K*6B
$GPRMC,170632.196,V,3855.075,N,07702.485,W,55.0,4.59,240416,,E*43
$GPGGA,170633.196,3855.075,N,07702.485,W,0,04,0.4,,M,,M,,*73
$GPGLL,3855.075,N,07702.485,W,170634.196,V*3A
$GPVTG,4.59,T,,M,55.0,N,101.8,K*60
$GPRMC,170636.196,V,3855.076,N,07702.483,W,96.4,4.61,240416,,E*42
$GPGGA,170637.196,3855.076,N,07702.483,W,0,04,0.4,,M,,M,,*72
$GPGLL,3855.076,N,07702.483,W,170638.196,V*33
$GPVTG,4.61,T,,M,96.4,N,178.6,K*60
$GPRMC,170640.196,V,3855.077,N,07702.482,W,28.4,4.70,240416,,E*46
$GPGGA,170641.196,3855.077,N,07702.482,W,0,04,0.4,,M,,M,,*73
$GPGLL,3855.077,N,07702.482,W,170642.196,V*3E
$GPVTG,4.70,T,,M,28.4,N,52.6,K*5C
$GPRMC,170644.196,V,3855.078,N,07702.480,W,13.3,4.75,240416,,E*45
$GPGGA,170645.196,3855.078,N,07702.480,W,0,04,0.4,,M,,M,,*7A
$GPGLL,3855.078,N,07702.480,W,170646.196,V*37
$GPVTG,4.75,T,,M,13.3,N,24.7,K*56
$GPRMC,170648.196,V,3855.079,N,07702.478,W,62.7,4.67,240416,,E*4E
$GPGGA,170649.196,3855.079,N,07702.478,W,0,04,0.4,,M,,M,,*70
$GPGLL,3855.079,N,07702.478,W,170650.196,V*36
$GPVTG,4.67,T,,M,62.7,N,116.2,K*62
$GPRMC,170652.196,V,3855.079,N,07702.477,W,77.1,4.76,240416,,E*48
$GPGGA,170653.196,3855.079,N,07702.477,W,0,04,0.4,,M,,M,,*74
$GPGLL,3855.079,N,07702.477,W,170654.196,V*3D
$GPVTG,4.76,T,,M,77.1,N,142.7,K*64
$GPRMC,170656.196,V,3855.080,N,07702.475,W,86.4,4.71,240416,,E*44
$GPGGA,170657.196,3855.080,N,07702.475,W,0,04,0.4,,M,,M,,*74
$GPGLL,3855.080,N,07702.475,W,170658.196,V*35
$GPVTG,4.71,T,,M,86.4,N,160.1,K*6E
$GPRMC,170700.196,V,3855.081,N,07702.473,W,79.1,4.65,240416,,E*41
$GPGGA,170701.196,3855.081,N,07702.473,W,0,04,0.4,,M,,M,,*71
$GPGLL,3855.081,N,07702.473,W,170702.196,V*3C
$GPVTG,4.65,T,,M,79.1,N,146.5,K*6E
$GPRMC,170704.196,V,3855.082,N,07702.472,W,42.1,4.56,240416,,E*4F
$GPGGA,170705.196,3855.082,N,07702.472,W,0,04,0.4,,M,,M,,*77
$GPGLL,3855.082,N,07702.472,W,170706.196,V*3A
$GPVTG,4.56,T,,M,42.1,N,78.0,K*5F
$GPRMC,170708.196,V,3855.084,N,07702.471,W,70.3,4.51,240416,,E*42
$GPGGA,170709.196,3855.084,N,07702.471,W,0,04,0.4,,M,,M,,*7E
$GPGLL,3855.084,N,07702.471,W,170710.196,V*38
$GPVTG,4.51,T,,M,70.3,N,130.2,K*64
$GPRMC,170712.196,V,3855.085,N,07702.470,W,21.8,4.42,240416,,E*44
$GPGGA,170713.196,3855.085,N,07702.470,W,0,04,0.4,,M,,M,,*75
$GPGLL,3855.085,N,07702.470,W,170714.196,V*3C
$GPVTG,4.42,T,,M,21.8,N,40.4,K*59
$GPRMC,170716.196,V,3855.086,N,07702.469,W,31.4,4.35,240416,,E*46
$GPGGA,170717.196,3855.086,N,07702.469,W,0,04,0.4,,M,,M,,*7A
$GPGLL,3855.086,N,07702.469,W,170718.196,V*3B
$GPVTG,4.35,T,,M,31.4,N,58.1,K*58
$GPRMC,170720.196,V,3855.088,N,07702.468,W,79.9,4.36,240416,,E*4E
$GPGGA,170721.196,3855.088,N,07702.468,W,0,04,0.4,,M,,M,,*70
$GPGLL,3855.088,N,07702.468,W,170722.196,V*3D
$GPVTG,4.36,T,,M,79.9,N,148.0,K*6B
$GPRMC,170724.196,V,3855.090,N,07702.467,W,95.8,4.31,240416,,E*48
$GPGGA,170725.196,3855.090,N,07702.467,W,0,04,0.4,,M,,M,,*72
$GPGLL,3855.090,N,07702.467,W,170726.196,V*3F
$GPVTG,4.31,T,,M,95.8,N,177.5,K*66
$GPRMC,170728.196,V,3855.091,N,07702.466,W,83.9,4.22,240416,,E*40
$GPGGA,170729.196,3855.091,N,07702.466,W,0,04,0.4,,M,,M,,*7E
$GPGLL,3855.091,N,07702.466,W,170730.196,V*38
$GPVTG,4.22,T,,M,83.9,N,155.4,K*63
$GPRMC,170732.196,V,3855.093,N,07702.466,W,24.2,4.20,240416,,E*4D
$GPGGA,170733.196,3855.093,N,07702.466,W,0,04,0.4,,M,,M,,*77
$GPGLL,3855.093,N,07702.466,W,170734.196,V*3E
$GPVTG,4.20,T,,M,24.2,N,44.8,K*5A
$GPRMC,170736.196,V,3855.095,N,07702.465,W,55.3,4.20,240416,,E*4B
$GPGGA,170737.196,3855.095,N,07702.465,W,0,04,0.4,,M,,M,,*76
$GPGLL,3855.095,N,07702.465,W,170738.196,V*37
$GPVTG,4.20,T,,M,55.3,N,102.4,K*62
$GPRMC,170740.196,V,3855.096,N,07702.465,W,76.0,4.20,240416,,E*4B
$GPGGA,170741.196,3855.096,N,07702.465,W,0,04,0.4,,M,,M,,*74
$GPGLL,3855.096,N,07702.465,W,170742.196,V*39
$GPVTG,4.20,T,,M,76.0,N,140.8,K*6A
$GPRMC,170744.196,V,3855.098,N,07702.464,W,48.7,4.20,240416,,E*4A
$GPGGA,170745.196,3855.098,N,07702.464,W,0,04,0.4,,M,,M,,*7F
$GPGLL,3855.098,N,07702.464,W,170746.196,V*32
$GPVTG,4.20,T,,M,48.7,N,90.2,K*56
$GPRMC,170748.196,V,3855.100,N,07702.463,W,83.5,4.22,240416,,E*46
$GPGGA,170749.196,3855.100,N,07702.463,W,0,04,0.4,,M,,M,,*74
$GPGLL,3855.100,N,07702.463,W,170750.196,V*32
$GPVTG,4.22,T,,M,83.5,N,154.7,K*6D
$GPRMC,170752.196,V,3855.101,N,07702.463,W,62.2,4.24,240416,,E*42
$GPGGA,170753.196,3855.101,N,07702.463,W,0,04,0.4,,M,,M,,*7E
$GPGLL,3855.101,N,07702.463,W,170754.196,V*37
$GPVTG,4.24,T,,M,62.2,N,115.2,K*63
$GPRMC,170756.196,V,3855.103,N,07702.462,W,34.0,4.17,240416,,E*44
$GPGGA,170757.196,3855.103,N,07702.462,W,0,04,0.4,,M,,M,,*79
$GPGLL,3855.103,N,07702.462,W,170758.196,V*38
$GPVTG,4.17,T,,M,34.0,N,63.0,K*50
$GPRMC,170800.196,V,3855.105,N,07702.462,W,18.1,4.17,240416,,E*41
$GPGGA,170801.196,3855.105,N,07702.462,W,0,04,0.4,,M,,M,,*73
$GPGLL,3855.105,N,07702.462,W,170802.196,V*3E
$GPVTG,4.17,T,,M,18.1,N,33.6,K*5C
$GPRMC,170804.196,V,3855.107,N,07702.461,W,83.7,4.25,240416,,E*41
$GPGGA,170805.196,3855.107,N,07702.461,W,0,04,0.4,,M,,M,,*76
$GPGLL,3855.107,N,07702.461,W,170806.196,V*3B
$GPVTG,4.25,T,,M,83.7,N,155.0,K*6E
$GPRMC,170808.196,V,3855.108,N,07702.462,W,50.9,3.76,240416,,E*40
$GPGGA,170809.196,3855.108,N,07702.462,W,0,04,0.4,,M,,M,,*76
$GPGLL,3855.108,N,07702.462,W,170810.196,V*30
$GPVTG,3.76,T,,M,50.9,N,94.2,K*51
$GPRMC,170812.196,V,3855.110,N,07702.462,W,73.5,3.87,240416,,E*41
$GPGGA,170813.196,3855.110,N,07702.462,W,0,04,0.4,,M,,M,,*74
$GPGLL,3855.110,N,07702.462,W,170814.196,V*3D
$GPVTG,3.87,T,,M,73.5,N,136.0,K*69
$GPRMC,170816.196,V,3855.112,N,07702.463,W,43.2,3.81,240416,,E*44
$GPGGA,170817.196,3855.112,N,07702.463,W,0,04,0.4,,M,,M,,*73
$GPGLL,3855.112,N,07702.463,W,170818.196,V*32
$GPVTG,3.81,T,,M,43.2,N,80.0,K*57
$GPRMC,170820.196,V,3855.113,N,07702.463,W,93.1,3.81,240416,,E*4E
$GPGGA,170821.196,3855.113,N,07702.463,W,0,04,0.4,,M,,M,,*77
$GPGLL,3855.113,N,07702.463,W,170822.196,V*3A
$GPVTG,3.81,T,,M,93.1,N,172.3,K*66
$GPRMC,170824.196,V,3855.115,N,07702.464,W,44.1,3.81,240416,,E*41
$GPGGA,170825.196,3855.115,N,07702.464,W,0,04,0.4,,M,,M,,*72
$GPGLL,3855.115,N,07702.464,W,170826.196,V*3F
$GPVTG,3.81,T,,M,44.1,N,81.7,K*55
$GPRMC,170828.196,V,3855.117,N,07702.464,W,11.8,4.02,240416,,E*4A
$GPGGA,170829.196,3855.117,N,07702.464,W,0,04,0.4,,M,,M,,*7C
$GPGLL,3855.117,N,07702.464,W,170830.196,V*3A
$GPVTG,4.02,T,,M,11.8,N,21.9,K*54
$GPRMC,170832.196,V,3855.119,N,07702.464,W,35.4,4.03,240416,,E*44
$GPGGA,170833.196,3855.119,N,07702.464,W,0,04,0.4,,M,,M,,*79
$GPGLL,3855.119,N,07702.464,W,170834.196,V*30
$GPVTG,4.03,T,,M,35.4,N,65.5,K*53
$GPRMC,170836.196,V,3855.121,N,07702.463,W,65.6,4.04,240416,,E*4C
$GPGGA,170837.196,3855.121,N,07702.463,W,0,04,0.4,,M,,M,,*71
$GPGLL,3855.121,N,07702.463,W,170838.196,V*30
$GPVTG,4.04,T,,M,65.6,N,121.5,K*62
$GPRMC,170840.196,V,3855.122,N,07702.463,W,17.9,4.07,240416,,E*47
$GPGGA,170841.196,3855.122,N,07702.463,W,0,04,0.4,,M,,M,,*73
$GPGLL,3855.122,N,07702.463,W,170842.196,V*3E
$GPVTG,4.07,T,,M,17.9,N,33.1,K*5D
$GPRMC,170844.196,V,3855.124,N,07702.463,W,18.6,4.07,240416,,E*45
$GPGGA,170845.196,3855.124,N,07702.463,W,0,04,0.4,,M,,M,,*71
$GPGLL,3855.124,N,07702.463,W,170846.196,V*3C
$GPVTG,4.07,T,,M,18.6,N,34.4,K*5F
$GPRMC,170848.196,V,3855.126,N,07702.463,W,67.1,4.18,240416,,E*4A
$GPGGA,170849.196,3855.126,N,07702.463,W,0,04,0.4,,M,,M,,*7F
$GPGLL,3855.126,N,07702.463,W,170850.196,V*39
$GPVTG,4.18,T,,M,67.1,N,124.3,K*69
$GPRMC,170852.196,V,3855.128,N,07702.462,W,94.8,4.19,240416,,E*4A
$GPGGA,170853.196,3855.128,N,07702.462,W,0,04,0.4,,M,,M,,*7B
$GPGLL,3855.128,N,07702.462,W,170854.196,V*32
$GPVTG,4.19,T,,M,94.8,N,175.5,K*6F
$GPRMC,170856.196,V,3855.129,N,07702.461,W,51.3,4.24,240416,,E*40
$GPGGA,170857.196,3855.129,N,07702.461,W,0,04,0.4,,M,,M,,*7D
$GPGLL,3855.129,N,07702.461,W,170858.196,V*3C
$GPVTG,4.24,T,,M,51.3,N,95.1,K*58
$GPRMC,170900.196,V,3855.131,N,07702.460,W,99.6,4.35,240416,,E*4B
$GPGGA,170901.196,3855.131,N,07702.460,W,0,04,0.4,,M,,M,,*77
$GPGLL,3855.131,N,07702.460,W,170902.196,V*3A
$GPVTG,4.35,T,,M,99.6,N,184.5,K*6C
$GPRMC,170904.196,V,3855.132,N,07702.460,W,78.6,4.32,240416,,E*44
$GPGGA,170905.196,3855.132,N,07702.460,W,0,04,0.4,,M,,M,,*70
$GPGLL,3855.132,N,07702.460,W,170906.196,V*3D
$GPVTG,4.32,T,,M,78.6,N,145.6,K*6A
$GPRMC,170908.196,V,3855.134,N,07702.459,W,52.6,4.21,240416,,E*4E
$GPGGA,170909.196,3855.134,N,07702.459,W,0,04,0.4,,M,,M,,*70
$GPGLL,3855.134,N,07702.459,W,170910.196,V*36
$GPVTG,4.21,T,,M,52.6,N,97.5,K*5D
$GPRMC,170912.196,V,3855.136,N,07702.459,W,23.9,4.15,240416,,E*49
$GPGGA,170913.196,3855.136,N,07702.459,W,0,04,0.4,,M,,M,,*79
$GPGLL,3855.136,N,07702.459,W,170914.196,V*30
$GPVTG,4.15,T,,M,23.9,N,44.3,K*5B
$GPRMC,170916.196,V,3855.138,N,07702.458,W,78.1,4.07,240416,,E*47
$GPGGA,170917.196,3855.138,N,07702.458,W,0,04,0.4,,M,,M,,*72
$GPGLL,3855.138,N,07702.458,W,170918.196,V*33
$GPVTG,4.07,T,,M,78.1,N,144.7,K*6B
$GPRMC,170920.196,V,3855.139,N,07702.458,W,77.7,3.98,240416,,E*4B
$GPGGA,170921.196,3855.139,N,07702.458,W,0,04,0.4,,M,,M,,*76
$GPGLL,3855.139,N,07702.458,W,170922.196,V*3B
$GPVTG,3.98,T,,M,77.7,N,143.9,K*6A
$GPRMC,170924.196,V,3855.141,N,07702.459,W,4.7,3.90,240416,,E*7D
$GPGGA,170925.196,3855.141,N,07702.459,W,0,04,0.4,,M,,M,,*7C
$GPGLL,3855.141,N,07702.459,W,170926.196,V*31
$GPVTG,3.90,T,,M,4.7,N,8.8,K*59
$GPRMC,170928.196,V,3855.143,N,07702.459,W,12.4,4.03,240416,,E*4A
$GPGGA,170929.196,3855.143,N,07702.459,W,0,04,0.4,,M,,M,,*72
$GPGLL,3855.143,N,07702.459,W,170930.196,V*34
$GPVTG,4.03,T,,M,12.4,N,22.9,K*59
$GPRMC,170932.196,V,3855.145,N,07702.458,W,96.9,4.08,240416,,E*4C
$GPGGA,170933.196,3855.145,N,07702.458,W,0,04,0.4,,M,,M,,*7E
$GPGLL,3855.145,N,07702.458,W,170934.196,V*37
$GPVTG,4.08,T,,M,96.9,N,179.5,K*60
$GPRMC,170936.196,V,3855.147,N,07702.458,W,54.3,4.07,240416,,E*41
$GPGGA,170937.196,3855.147,N,07702.458,W,0,04,0.4,,M,,M,,*78
$GPGLL,3855.147,N,07702.458,W,170938.196,V*39
$GPVTG,4.07,T,,M,54.3,N,100.5,K*65
$GPRMC,170940.196,V,3855.148,N,07702.458,W,79.8,4.07,240416,,E*4B
$GPGGA,170941.196,3855.148,N,07702.458,W,0,04,0.4,,M,,M,,*76
$GPGLL,3855.148,N,07702.458,W,170942.196,V*3B
$GPVTG,4.07,T,,M,79.8,N,147.9,K*6E
$GPRMC,170944.196,V,3855.150,N,07702.458,W,34.4,4.01,240416,,E*45
$GPGGA,170945.196,3855.150,N,07702.458,W,0,04,0.4,,M,,M,,*7B
$GPGLL,3855.150,N,07702.458,W,170946.196,V*36
$GPVTG,4.01,T,,M,34.4,N,63.8,K*5B
$GPRMC,170948.196,V,3855.152,N,07702.458,W,99.6,4.07,240416,,E*48
$GPGGA,170949.196,3855.152,N,07702.458,W,0,04,0.4,,M,,M,,*75
$GPGLL,3855.152,N,07702.458,W,170950.196,V*33
$GPVTG,4.07,T,,M,99.6,N,184.5,K*6D
$GPRMC,170952.196,V,3855.154,N,07702.458,W,36.2,4.06,240416,,E*45
$GPGGA,170953.196,3855.154,N,07702.458,W,0,04,0.4,,M,,M,,*78
$GPGLL,3855.154,N,07702.458,W,170954.196,V*31
$GPVTG,4.06,T,,M,36.2,N,67.0,K*54
$GPRMC,170956.196,V,3855.156,N,07702.457,W,12.2,4.15,240416,,E*48
$GPGGA,170957.196,3855.156,N,07702.457,W,0,04,0.4,,M,,M,,*71
$GPGLL,3855.156,N,07702.457,W,170958.196,V*30
$GPVTG,4.15,T,,M,12.2,N,22.5,K*54
$GPRMC,171000.196,V,3855.157,N,07702.457,W,89.1,4.05,240416,,E*42
$GPGGA,171001.196,3855.157,N,07702.457,W,0,04,0.4,,M,,M,,*7B
$GPGLL,3855.157,N,07702.457,W,171002.196,V*36
$GPVTG,4.05,T,,M,89.1,N,164.9,K*6B
$GPRMC,171004.196,V,3855.159,N,07702.457,W,7.4,4.09,240416,,E*77
$GPGGA,171005.196,3855.159,N,07702.457,W,0,04,0.4,,M,,M,,*71
$GPGLL,3855.159,N,07702.457,W,171006.196,V*3C
$GPVTG,4.09,T,,M,7.4,N,13.6,K*6A
$GPGSA,A,2,12,04,18,12,10,08,,,,,,,0.7,0.6,0.2*34
$GPGSV,2,1,06,12,77,023,28,04,33,110,41,18,84,230,68,12,67,257,42*7B
$GPGSV,2,2,06,10,39,050,44,08,83,186,74*7E
$GPRMC,171011.196,V,3855.161,N,07702.457,W,98.9,4.04,240416,,E*4E
$GPGGA,171012.196,3855.161,N,07702.457,W,0,04,0.6,,M,,M,,*7E
$GPGLL,3855.161,N,07702.457,W,171013.196,V*33
$GPVTG,4.04,T,,M,98.9,N,183.2,K*60
$GPRMC,171015.196,V,3855.163,N,07702.457,W,93.1,3.96,240416,,E*47
$GPGGA,171016.196,3855.163,N,07702.457,W,0,04,0.6,,M,,M,,*78
$GPGLL,3855.163,N,07702.457,W,171017.196,V*35
$GPVTG,3.96,T,,M,93.1,N,172.4,K*67
$GPRMC,171019.196,V,3855.165,N,07702.457,W,8.3,3.98,240416,,E*73
$GPGGA,171020.196,3855.165,N,07702.457,W,0,04,0.6,,M,,M,,*7B
$GPGLL,3855.165,N,07702.457,W,171021.196,V*36
$GPVTG,3.98,T,,M,8.3,N,15.3,K*6E
$GPRMC,171023.196,V,3855.166,N,07702.457,W,91.0,4.07,240416,,E*4B
$GPGGA,171024.196,3855.166,N,07702.457,W,0,04,0.6,,M,,M,,*7C
$GPGLL,3855.166,N,07702.457,W,171025.196,V*31
$GPVTG,4.07,T,,M,91.0,N,168.4,K*60
$GPRMC,171027.196,V,3855.168,N,07702.457,W,87.9,3.99,240416,,E*4F
$GPGGA,171028.196,3855.168,N,07702.457,W,0,04,0.6,,M,,M,,*7E
$GPGLL,3855.168,N,07702.457,W,171029.196,V*33
$GPVTG,3.99,T,,M,87.9,N,162.8,K*68
$GPRMC,171031.196,V,3855.169,N,07702.458,W,1.0,3.50,240416,,E*74
$GPGGA,171032.196,3855.169,N,07702.458,W,0,04,0.6,,M,,M,,*7B
$GPGLL,3855.169,N,07702.458,W,171033.196,V*36
$GPVTG,3.50,T,,M,1.0,N,1.8,K*5E
$GPRMC,171035.196,V,3855.171,N,07702.459,W,7.4,3.60,240416,,E*79
$GPGGA,171036.196,3855.171,N,07702.459,W,0,04,0.6,,M,,M,,*77
$GPGLL,3855.171,N,07702.459,W,171037.196,V*3A
$GPVTG,3.60,T,,M,7.4,N,13.7,K*63
$GPRMC,171039.196,V,3855.172,N,07702.460,W,50.2,3.69,240416,,E*41
$GPGGA,171040.196,3855.172,N,07702.460,W,0,04,0.6,,M,,M,,*7F
$GPGLL,3855.172,N,07702.460,W,171041.196,V*32
$GPVTG,3.69,T,,M,50.2,N,93.0,K*51
$GPRMC,171043.196,V,3855.174,N,07702.461,W,51.4,3.65,240416,,E*40
$GPGGA,171044.196,3855.174,N,07702.461,W,0,04,0.6,,M,,M,,*7C
$GPGLL,3855.174,N,07702.461,W,171045.196,V*31
$GPVTG,3.65,T,,M,51.4,N,95.1,K*5D
$GPRMC,171047.196,V,3855.176,N,07702.462,W,79.2,3.69,240416,,E*45
$GPGGA,171048.196,3855.176,N,07702.462,W,0,04,0.6,,M,,M,,*71
$GPGLL,3855.176,N,07702.462,W,171049.196,V*3C
$GPVTG,3.69,T,,M,79.2,N,146.7,K*64
$GPRMC,171051.196,V,3855.177,N,07702.462,W,13.7,3.71,240416,,E*43
$GPGGA,171052.196,3855.177,N,07702.462,W,0,04,0.6,,M,,M,,*7B
$GPGLL,3855.177,N,07702.462,W,171053.196,V*36
$GPVTG,3.71,T,,M,13.7,N,25.4,K*53
$GPRMC,171055.196,V,3855.179,N,07702.463,W,46.8,3.70,240416,,E*46
$GPGGA,171056.196,3855.179,N,07702.463,W,0,04,0.6,,M,,M,,*70
$GPGLL,3855.179,N,07702.463,W,171057.196,V*3D
$GPVTG,3.70,T,,M,46.8,N,86.7,K*57
$GPRMC,171059.196,V,3855.181,N,07702.464,W,100.0,3.80,240416,,E*7E
$GPGGA,171100.196,3855.181,N,07702.464,W,0,04,0.6,,M,,M,,*72
$GPGLL,3855.181,N,07702.464,W,171101.196,V*3F
$GPVTG,3.80,T,,M,100.0,N,185.1,K*57
$GPGSA,A,3,12,04,18,12,10,08,,,,,,,0.4,0.5,0.5*32
$GPGSV,2,1,06,12,71,333,88,04,14,323,57,18,82,168,69,12,55,261,27*7B
$GPGSV,2,2,06,10,20,305,54,08,35,147,30*74
$GPRMC,171106.196,V,3855.182,N,07702.464,W,0.1,3.81,240416,,E*77
$GPGGA,171107.196,3855.182,N,07702.464,W,0,04,0.5,,M,,M,,*75
$GPGLL,3855.182,N,07702.464,W,171108.196,V*35
$GPVTG,3.81,T,,M,0.1,N,0.2,K*59
$GPRMC,171110.196,V,3855.184,N,07702.465,W,80.4,3.91,240416,,E*4B
$GPGGA,171111.196,3855.184,N,07702.465,W,0,04,0.5,,M,,M,,*75
$GPGLL,3855.184,N,07702.465,W,171112.196,V*39
$GPVTG,3.91,T,,M,80.4,N,148.9,K*63
$GPRMC,171114.196,V,3855.186,N,07702.465,W,32.2,4.00,240416,,E*4D
$GPGGA,171115.196,3855.186,N,07702.465,W,0,04,0.5,,M,,M,,*73
$GPGLL,3855.186,N,07702.465,W,171116.196,V*3F
$GPVTG,4.00,T,,M,32.2,N,59.7,K*5C
$GPRMC,171118.196,V,3855.188,N,07702.465,W,21.7,4.00,240416,,E*48
$GPGGA,171119.196,3855.188,N,07702.465,W,0,04,0.5,,M,,M,,*71
$GPGLL,3855.188,N,07702.465,W,171120.196,V*34
$GPVTG,4.00,T,,M,21.7,N,40.3,K*57
$GPRMC,171122.196,V,3855.189,N,07702.465,W,4.8,3.95,240416,,E*73
$GPGGA,171123.196,3855.189,N,07702.465,W,0,04,0.5,,M,,M,,*79
$GPGLL,3855.189,N,07702.465,W,171124.196,V*31
$GPVTG,3.95,T,,M,4.8,N,8.9,K*52
$GPRMC,171126.196,V,3855.191,N,07702.465,W,6.9,3.84,240416,,E*7D
$GPGGA,171127.196,3855.191,N,07702.465,W,0,04,0.5,,M,,M,,*74
$GPGLL,3855.191,N,07702.465,W,171128.196,V*34
$GPVTG,3.84,T,,M,6.9,N,12.8,K*6B
$GPRMC,171130.196,V,3855.193,N,07702.466,W,31.0,3.85,240416,,E*47
$GPGGA,171131.196,3855.193,N,07702.466,W,0,04,0.5,,M,,M,,*72
$GPGLL,3855.193,N,07702.466,W,171132.196,V*3E
$GPVTG,3.85,T,,M,31.0,N,57.4,K*5A
$GPRMC,171134.196,V,3855.194,N,07702.466,W,45.1,3.69,240416,,E*44
$GPGGA,171135.196,3855.194,N,07702.466,W,0,04,0.5,,M,,M,,*71
$GPGLL,3855.194,N,07702.466,W,171136.196,V*3D
$GPVTG,3.69,T,,M,45.1,N,83.5,K*52
$GPRMC,171138.196,V,3855.196,N,07702.467,W,13.3,3.60,240416,,E*43
$GPGGA,171139.196,3855.196,N,07702.467,W,0,04,0.5,,M,,M,,*7E
$GPGLL,3855.196,N,07702.467,W,171140.196,V*3F
$GPVTG,3.60,T,,M,13.3,N,24.6,K*54
$GPRMC,171142.196,V,3855.197,N,07702.469,W,21.4,3.52,240416,,E*46
$GPGGA,171143.196,3855.197,N,07702.469,W,0,04,0.5,,M,,M,,*7C
$GPGLL,3855.197,N,07702.469,W,171144.196,V*34
$GPVTG,3.52,T,,M,21.4,N,39.6,K*5F
$GPRMC,171146.196,V,3855.198,N,07702.470,W,7.6,3.42,240416,,E*72
$GPGGA,171147.196,3855.198,N,07702.470,W,0,04,0.5,,M,,M,,*7F
$GPGLL,3855.198,N,07702.470,W,171148.196,V*3F
$GPVTG,3.42,T,,M,7.6,N,14.1,K*60
$GPRMC,171150.196,V,3855.200,N,07702.471,W,16.4,3.53,240416,,E*44
$GPGGA,171151.196,3855.200,N,07702.471,W,0,04,0.5,,M,,M,,*7B
$GPGLL,3855.200,N,07702.471,W,171152.196,V*37
$GPVTG,3.53,T,,M,16.4,N,30.4,K*51
$GPGSA,A,2,12,04,18,12,10,08,,,,,,,0.9,0.7,0.0*39
$GPGSV,2,1,06,12,21,196,68,04,75,344,26,18,17,153,16,12,32,001,81*78
$GPGSV,2,2,06,10,17,174,20,08,49,238,73*70
$GPRMC,171157.196,V,3855.201,N,07702.473,W,82.1,3.47,240416,,E*4D
$GPGGA,171158.196,3855.201,N,07702.473,W,0,04,0.7,,M,,M,,*73
$GPGLL,3855.201,N,07702.473,W,171159.196,V*3F
$GPVTG,3.47,T,,M,82.1,N,152.0,K*6D
$GPRMC,171201.196,V,3855.202,N,07702.474,W,77.6,3.50,240416,,E*42
$GPGGA,171202.196,3855.202,N,07702.474,W,0,04,0.7,,M,,M,,*7B
$GPGLL,3855.202,N,07702.474,W,171203.196,V*37
$GPVTG,3.50,T,,M,77.6,N,143.7,K*61
$GPRMC,171205.196,V,3855.203,N,07702.475,W,10.6,3.44,240416,,E*42
$GPGGA,171206.196,3855.203,N,07702.475,W,0,04,0.7,,M,,M,,*7F
$GPGLL,3855.203,N,07702.475,W,171207.196,V*33
$GPVTG,3.44,T,,M,10.6,N,19.6,K*5A
$GPRMC,171209.196,V,3855.204,N,07702.477,W,89.3,3.42,240416,,E*48
$GPGGA,171210.196,3855.204,N,07702.477,W,0,04,0.7,,M,,M,,*7D
$GPGLL,3855.204,N,07702.477,W,171211.196,V*31
$GPVTG,3.42,T,,M,89.3,N,165.3,K*66
$GPRMC,171213.196,V,3855.206,N,07702.478,W,1.2,3.41,240416,,E*7C
$GPGGA,171214.196,3855.206,N,07702.478,W,0,04,0.7,,M,,M,,*74
$GPGLL,3855.206,N,07702.478,W,171215.196,V*38
$GPVTG,3.41,T,,M,1.2,N,2.2,K*55
$GPRMC,171217.196,V,3855.207,N,07702.480,W,92.0,3.38,240416,,E*48
$GPGGA,171218.196,3855.207,N,07702.480,W,0,04,0.7,,M,,M,,*7E
$GPGLL,3855.207,N,07702.480,W,171219.196,V*32
$GPVTG,3.38,T,,M,92.0,N,170.4,K*61
$GPRMC,171221.196,V,3855.207,N,07702.481,W,88.4,3.29,240416,,E*43
$GPGGA,171222.196,3855.207,N,07702.481,W,0,04,0.7,,M,,M,,*76
$GPGLL,3855.207,N,07702.481,W,171223.196,V*3A
$GPVTG,3.29,T,,M,88.4,N,163.7,K*6F
$GPRMC,171225.196,V,3855.208,N,07702.483,W,39.4,3.34,240416,,E*4C
$GPGGA,171226.196,3855.208,N,07702.483,W,0,04,0.7,,M,,M,,*7F
$GPGLL,3855.208,N,07702.483,W,171227.196,V*33
$GPVTG,3.34,T,,M,39.4,N,72.9,K*56
$GPRMC,171229.196,V,3855.209,N,07702.484,W,92.8,3.27,240416,,E*49
$GPGGA,171230.196,3855.209,N,07702.484,W,0,04,0.7,,M,,M,,*7E
$GPGLL,3855.209,N,07702.484,W,171231.196,V*32
$GPVTG,3.27,T,,M,92.8,N,171.8,K*6A
$GPGSA,A,3,12,04,18,12,10,08,,,,,,,0.5,0.0,0.8*3B
$GPGSV,2,1,06,12,89,026,36,04,23,047,66,18,49,127,20,12,62,135,85*76
$GPGSV,2,2,06,10,39,177,83,08,76,268,19*73
$GPRMC,171236.196,V,3855.209,N,07702.486,W,34.2,3.20,240416,,E*44
$GPGGA,171237.196,3855.209,N,07702.486,W,0,04,0.0,,M,,M,,*7C
$GPGLL,3855.209,N,07702.486,W,171238.196,V*39
$GPVTG,3.20,T,,M,34.2,N,63.4,K*55
$GPRMC,171240.196,V,3855.210,N,07702.488,W,72.6,3.21,240416,,E*44
$GPGGA,171241.196,3855.210,N,07702.488,W,0,04,0.0,,M,,M,,*7B
$GPGLL,3855.210,N,07702.488,W,171242.196,V*32
$GPVTG,3.21,T,,M,72.6,N,134.4,K*61
$GPRMC,171244.196,V,3855.211,N,07702.490,W,46.9,3.18,240416,,E*4A
$GPGGA,171245.196,3855.211,N,07702.490,W,0,04,0.0,,M,,M,,*77
$GPGLL,3855.211,N,07702.490,W,171246.196,V*3E
$GPVTG,3.18,T,,M,46.9,N,86.9,K*56
$GPRMC,171248.196,V,3855.211,N,07702.491,W,79.8,3.24,240416,,E*45
$GPGGA,171249.196,3855.211,N,07702.491,W,0,04,0.0,,M,,M,,*7A
$GPGLL,3855.211,N,07702.491,W,171250.196,V*38
$GPVTG,3.24,T,,M,79.8,N,147.8,K*69
$GPRMC,171252.196,V,3855.212,N,07702.493,W,12.6,3.26,240416,,E*4E
$GPGGA,171253.196,3855.212,N,07702.493,W,0,04,0.0,,M,,M,,*70
$GPGLL,3855.212,N,07702.493,W,171254.196,V*3D
$GPVTG,3.26,T,,M,12.6,N,23.4,K*57
$GPRMC,171256.196,V,3855.213,N,07702.495,W,17.2,3.23,240416,,E*49
$GPGGA,171257.196,3855.213,N,07702.495,W,0,04,0.0,,M,,M,,*73
$GPGLL,3855.213,N,07702.495,W,171258.196,V*36
$GPVTG,3.23,T,,M,17.2,N,31.9,K*5D
$GPRMC,171300.196,V,3855.213,N,07702.496,W,77.1,3.31,240416,,E*4E
$GPGGA,171301.196,3855.213,N,07702.496,W,0,04,0.0,,M,,M,,*72
$GPGLL,3855.213,N,07702.496,W,171302.196,V*3B
$GPVTG,3.31,T,,M,77.1,N,142.8,K*6F
$GPRMC,171304.196,V,3855.215,N,07702.497,W,42.7,3.57,240416,,E*4D
$GPGGA,171305.196,3855.215,N,07702.497,W,0,04,0.0,,M,,M,,*71
$GPGLL,3855.215,N,07702.497,W,171306.196,V*38
$GPVTG,3.57,T,,M,42.7,N,79.1,K*5F
$GPRMC,171308.196,V,3855.216,N,07702.499,W,63.4,3.50,240416,,E*4B
$GPGGA,171309.196,3855.216,N,07702.499,W,0,04,0.0,,M,,M,,*70
$GPGLL,3855.216,N,07702.499,W,171310.196,V*32
$GPVTG,3.50,T,,M,63.4,N,117.5,K*65
$GPRMC,171312.196,V,3855.217,N,07702.500,W,53.4,3.50,240416,,E*43
$GPGGA,171313.196,3855.217,N,07702.500,W,0,04,0.0,,M,,M,,*7B
$GPGLL,3855.217,N,07702.500,W,171314.196,V*36
$GPVTG,3.50,T,,M,53.4,N,99.0,K*54
$GPRMC,171316.196,V,3855.219,N,07702.501,W,70.5,3.43,240416,,E*4A
$GPGGA,171317.196,3855.219,N,07702.501,W,0,04,0.0,,M,,M,,*70
$GPGLL,3855.219,N,07702.501,W,171318.196,V*35
$GPVTG,3.43,T,,M,70.5,N,130.5,K*61
$GPGSA,A,3,12,04,18,12,10,08,,,,,,,0.5,0.2,0.3*32
$GPGSV,2,1,06,12,35,318,24,04,46,179,31,18,62,054,37,12,76,243,64*73
$GPGSV,2,2,06,10,79,020,87,08,18,264,49*71
$GPRMC,171323.196,V,3855.220,N,07702.502,W,58.6,3.76,240416,,E*4A
$GPGGA,171324.196,3855.220,N,07702.502,W,0,04,0.2,,M,,M,,*7B
$GPGLL,3855.220,N,07702.502,W,171325.196,V*32
$GPVTG,3.76,T,,M,58.6,N,108.5,K*65
$GPRMC,171327.196,V,3855.222,N,07702.502,W,65.1,4.05,240416,,E*46
$GPGGA,171328.196,3855.222,N,07702.502,W,0,04,0.2,,M,,M,,*75
$GPGLL,3855.222,N,07702.502,W,171329.196,V*3C
$GPVTG,4.05,T,,M,65.1,N,120.6,K*66
$GPRMC,171331.196,V,3855.223,N,07702.501,W,68.7,4.36,240416,,E*48
$GPGGA,171332.196,3855.223,N,07702.501,W,0,04,0.2,,M,,M,,*7C
$GPGLL,3855.223,N,07702.501,W,171333.196,V*35
$GPVTG,4.36,T,,M,68.7,N,127.2,K*6E
$GPGSA,A,3,12,04,18,12,10,08,,,,,,,0.7,0.0,0.7*36
$GPGSV,2,1,06,12,19,119,42,04,62,060,68,18,52,045,73,12,79,088,47*75
$GPGSV,2,2,06,10,05,084,22,08,49,212,23*72
$GPRMC,171338.196,V,3855.225,N,07702.500,W,24.8,4.43,240416,,E*43
$GPGGA,171339.196,3855.225,N,07702.500,W,0,04,0.0,,M,,M,,*72
$GPGLL,3855.225,N,07702.500,W,171340.196,V*36
$GPVTG,4.43,T,,M,24.8,N,46.0,K*5F
$GPRMC,171342.196,V,3855.227,N,07702.500,W,22.9,4.07,240416,,E*4B
$GPGGA,171343.196,3855.227,N,07702.500,W,0,04,0.0,,M,,M,,*7D
$GPGLL,3855.227,N,07702.500,W,171344.196,V*30
$GPVTG,4.07,T,,M,22.9,N,42.4,K*58
$GPRMC,171346.196,V,3855.228,N,07702.500,W,26.1,3.99,240416,,E*4C
$GPGGA,171347.196,3855.228,N,07702.500,W,0,04,0.0,,M,,M,,*76
$GPGLL,3855.228,N,07702.500,W,171348.196,V*33
$GPVTG,3.99,T,,M,26.1,N,48.3,K*59
$GPRMC,171350.196,V,3855.230,N,07702.500,W,67.7,3.98,240416,,E*40
$GPGGA,171351.196,3855.230,N,07702.500,W,0,04,0.0,,M,,M,,*78
$GPGLL,3855.230,N,07702.500,W,171352.196,V*31
$GPVTG,3.98,T,,M,67.7,N,125.4,K*66
$GPRMC,171354.196,V,3855.232,N,07702.500,W,59.1,3.96,240416,,E*43
$GPGGA,171355.196,3855.232,N,07702.500,W,0,04,0.0,,M,,M,,*7E
$GPGLL,3855.232,N,07702.500,W,171356.196,V*37
$GPVTG,3.96,T,,M,59.1,N,109.5,K*6C
$GPRMC,171358.196,V,3855.234,N,07702.500,W,66.1,3.91,240416,,E*42
$GPGGA,171359.196,3855.234,N,07702.500,W,0,04,0.0,,M,,M,,*74
$GPGLL,3855.234,N,07702.500,W,171400.196,V*35
$GPVTG,3.91,T,,M,66.1,N,122.3,K*68
$GPRMC,171402.196,V,3855.236,N,07702.501,W,69.1,3.81,240416,,E*47
$GPGGA,171403.196,3855.236,N,07702.501,W,0,04,0.0,,M,,M,,*7F
$GPGLL,3855.236,N,07702.501,W,171404.196,V*32
$GPVTG,3.81,T,,M,69.1,N,127.9,K*69
$GPRMC,171406.196,V,3855.237,N,07702.501,W,54.0,3.72,240416,,E*41
$GPGGA,171407.196,3855.237,N,07702.501,W,0,04,0.0,,M,,M,,*7A
$GPGLL,3855.237,N,07702.501,W,171408.196,V*3F
$GPVTG,3.72,T,,M,54.0,N,100.1,K*67
$GPRMC,171410.196,V,3855.239,N,07702.502,W,8.3,3.81,240416,,E*7D
$GPGGA,171411.196,3855.239,N,07702.502,W,0,04,0.0,,M,,M,,*70
$GPGLL,3855.239,N,07702.502,W,171412.196,V*39
$GPVTG,3.81,T,,M,8.3,N,15.3,K*66
$GPGSA,A,2,12,04,18,12,10,08,,,,,,,0.2,1.0,0.6*32
$GPGSV,2,1,06,12,69,075,27,04,57,212,50,18,53,149,45,12,11,230,55*75
$GPGSV,2,2,06,10,37,080,31,08,64,283,59*7F
$GPRMC,171417.196,V,3855.241,N,07702.502,W,5.1,3.78,240416,,E*7C
$GPGGA,171418.196,3855.241,N,07702.502,W,0,04,1.0,,M,,M,,*77
$GPGLL,3855.241,N,07702.502,W,171419.196,V*3D
$GPVTG,3.78,T,,M,5.1,N,9.4,K*55
$GPRMC,171421.196,V,3855.242,N,07702.503,W,96.7,3.84,240416,,E*44
$GPGGA,171422.196,3855.242,N,07702.503,W,0,04,1.0,,M,,M,,*7C
$GPGLL,3855.242,N,07702.503,W,171423.196,V*36
$GPVTG,3.84,T,,M,96.7,N,179.2,K*6A
$GPRMC,171425.196,V,3855.244,N,07702.503,W,4.8,3.94,240416,,E*73
$GPGGA,171426.196,3855.244,N,07702.503,W,0,04,1.0,,M,,M,,*7E
$GPGLL,3855.244,N,07702.503,W,171427.196,V*34
$GPVTG,3.94,T,,M,4.8,N,8.9,K*53
$GPRMC,171429.196,V,3855.246,N,07702.503,W,42.7,3.92,240416,,E*46
$GPGGA,171430.196,3855.246,N,07702.503,W,0,04,1.0,,M,,M,,*7B
$GPGLL,3855.246,N,07702.503,W,171431.196,V*31
$GPVTG,3.92,T,,M,42.7,N,79.1,K*56
$GPRMC,171433.196,V,3855.248,N,07702.504,W,45.3,3.85,240416,,E*41
$GPGGA,171434.196,3855.248,N,07702.504,W,0,04,1.0,,M,,M,,*76
$GPGLL,3855.248,N,07702.504,W,171435.196,V*3C
$GPVTG,3.85,T,,M,45.3,N,83.9,K*5E
$GPGSA,A,2,12,04,18,12,10,08,,,,,,,0.5,0.9,0.8*33
$GPGSV,2,1,06,12,28,303,62,04,75,145,47,18,36,067,54,12,70,118,18*7D
$GPGSV,2,2,06,10,60,292,16,08,73,317,41*7A
$GPRMC,171440.196,V,3855.249,N,07702.504,W,1.9,3.88,240416,,E*73
$GPGGA,171441.196,3855.249,N,07702.504,W,0,04,0.9,,M,,M,,*7D
$GPGLL,3855.249,N,07702.504,W,171442.196,V*3D
$GPVTG,3.88,T,,M,1.9,N,3.6,K*5E
$GPRMC,171444.196,V,3855.251,N,07702.505,W,79.4,3.77,240416,,E*4D
$GPGGA,171445.196,3855.251,N,07702.505,W,0,04,0.9,,M,,M,,*71
$GPGLL,3855.251,N,07702.505,W,171446.196,V*31
$GPVTG,3.77,T,,M,79.4,N,147.0,K*6B
$GPGSA,A,2,12,04,18,12,10,08,,,,,,,0.4,0.5,0.1*37
$GPGSV,2,1,06,12,23,248,30,04,42,218,65,18,47,175,16,12,23,241,48*7E
$GPGSV,2,2,06,10,38,110,60,08,55,055,38*70
$GPRMC,171451.196,V,3855.253,N,07702.505,W,40.2,3.88,240416,,E*47
$GPGGA,171452.196,3855.253,N,07702.505,W,0,04,0.5,,M,,M,,*79
$GPGLL,3855.253,N,07702.505,W,171453.196,V*37
$GPVTG,3.88,T,,M,40.2,N,74.5,K*53
$GPRMC,171455.196,V,3855.255,N,07702.505,W,11.3,3.93,240416,,E*4A
$GPGGA,171456.196,3855.255,N,07702.505,W,0,04,0.5,,M,,M,,*7B
$GPGLL,3855.255,N,07702.505,W,171457.196,V*35
$GPVTG,3.93,T,,M,11.3,N,21.0,K*59
$GPRMC,171459.196,V,3855.257,N,07702.505,W,1.9,3.99,240416,,E*75
$GPGGA,171500.196,3855.257,N,07702.505,W,0,04,0.5,,M,,M,,*7B
$GPGLL,3855.257,N,07702.505,W,171501.196,V*35
$GPVTG,3.99,T,,M,1.9,N,3.6,K*5E
$GPRMC,171503.196,V,3855.258,N,07702.506,W,5.7,3.89,240416,,E*7C
$GPGGA,171504.196,3855.258,N,07702.506,W,0,04,0.5,,M,,M,,*73
$GPGLL,3855.258,N,07702.506,W,171505.196,V*3D
$GPVTG,3.89,T,,M,5.7,N,10.6,K*67
$GPRMC,171507.196,V,3855.260,N,07702.506,W,28.0,3.97,240416,,E*44
$GPGGA,171508.196,3855.260,N,07702.506,W,0,04,0.5,,M,,M,,*74
$GPGLL,3855.260,N,07702.506,W,171509.196,V*3A
$GPVTG,3.97,T,,M,28.0,N,51.9,K*5A
$GPRMC,171511.196,V,3855.262,N,07702.506,W,6.4,4.05,240416,,E*75
$GPGGA,171512.196,3855.262,N,07702.506,W,0,04,0.5,,M,,M,,*7D
$GPGLL,3855.262,N,07702.506,W,171513.196,V*33
$GPVTG,4.05,T,,M,6.4,N,11.8,K*6B
$GPGSA,A,2,12,04,18,12,10,08,,,,,,,0.8,0.4,0.5*3E
$GPGSV,2,1,06,12,79,181,50,04,49,264,25,18,47,038,66,12,45,311,63*77
$GPGSV,2,2,06,10,16,233,54,08,44,115,31*75
$GPRMC,171518.196,V,3855.264,N,07702.505,W,33.9,4.06,240416,,E*41
$GPGGA,171519.196,3855.264,N,07702.505,W,0,04,0.4,,M,,M,,*72
$GPGLL,3855.264,N,07702.505,W,171520.196,V*36
$GPVTG,4.06,T,,M,33.9,N,62.9,K*56
$GPRMC,171522.196,V,3855.265,N,07702.505,W,16.0,4.01,240416,,E*40
$GPGGA,171523.196,3855.265,N,07702.505,W,0,04,0.4,,M,,M,,*7A
$GPGLL,3855.265,N,07702.505,W,171524.196,V*33
$GPVTG,4.01,T,,M,16.0,N,29.6,K*5F
$GPRMC,171526.196,V,3855.267,N,07702.506,W,78.1,3.80,240416,,E*42
$GPGGA,171527.196,3855.267,N,07702.506,W,0,04,0.4,,M,,M,,*7F
$GPGLL,3855.267,N,07702.506,W,171528.196,V*3E
$GPVTG,3.80,T,,M,78.1,N,144.6,K*62
$GPGSA,A,2,12,04,18,12,10,08,,,,,,,0.2,0.8,0.7*3A
$GPGSV,2,1,06,12,27,054,83,04,81,253,73,18,79,331,82,12,42,039,85*73
$GPGSV,2,2,06,10,36,034,25,08,33,078,35*7A
$GPRMC,171533.196,V,3855.269,N,07702.506,W,5.0,3.86,240416,,E*75
$GPGGA,171534.196,3855.269,N,07702.506,W,0,04,0.8,,M,,M,,*7F
$GPGLL,3855.269,N,07702.506,W,171535.196,V*3C
$GPVTG,3.86,T,,M,5.0,N,9.2,K*53
$GPRMC,171537.196,V,3855.271,N,07702.507,W,72.4,3.90,240416,,E*4A
$GPGGA,171538.196,3855.271,N,07702.507,W,0,04,0.8,,M,,M,,*7B
$GPGLL,3855.271,N,07702.507,W,171539.196,V*38
$GPVTG,3.90,T,,M,72.4,N,134.1,K*6C
$GPRMC,171541.196,V,3855.273,N,07702.507,W,78.0,3.97,240416,,E*40
$GPGGA,171542.196,3855.273,N,07702.507,W,0,04,0.8,,M,,M,,*74
$GPGLL,3855.273,N,07702.507,W,171543.196,V*37
$GPVTG,3.97,T,,M,78.0,N,144.5,K*66
$GPRMC,171545.196,V,3855.274,N,07702.507,W,83.1,4.02,240416,,E*4D
$GPGGA,171546.196,3855.274,N,07702.507,W,0,04,0.8,,M,,M,,*77
$GPGLL,3855.274,N,07702.507,W,171547.196,V*34
$GPVTG,4.02,T,,M,83.1,N,153.9,K*62
$GPRMC,171549.196,V,3855.276,N,07702.507,W,63.2,3.99,240416,,E*4B
$GPGGA,171550.196,3855.276,N,07702.507,W,0,04,0.8,,M,,M,,*72
$GPGLL,3855.276,N,07702.507,W,171551.196,V*31
$GPVTG,3.99,T,,M,63.2,N,117.1,K*62
$GPRMC,171553.196,V,3855.278,N,07702.507,W,92.1,3.96,240416,,E*4C
$GPGGA,171554.196,3855.278,N,07702.507,W,0,04,0.8,,M,,M,,*78
$GPGLL,3855.278,N,07702.507,W,171555.196,V*3B
$GPVTG,3.96,T,,M,92.1,N,170.5,K*65
$GPRMC,171557.196,V,3855.280,N,07702.507,W,5.8,3.96,240416,,E*78
$GPGGA,171558.196,3855.280,N,07702.507,W,0,04,0.8,,M,,M,,*73
$GPGLL,3855.280,N,07702.507,W,171559.196,V*30
$GPVTG,3.96,T,,M,5.8,N,10.7,K*67
$GPRMC,171601.196,V,3855.281,N,07702.507,W,71.5,3.85,240416,,E*45
$GPGGA,171602.196,3855.281,N,07702.507,W,0,04,0.8,,M,,M,,*7E
$GPGLL,3855.281,N,07702.507,W,171603.196,V*3D
$GPVTG,3.85,T,,M,71.5,N,132.4,K*69
$GPRMC,171605.196,V,3855.283,N,07702.508,W,18.0,3.85,240416,,E*46
$GPGGA,171606.196,3855.283,N,07702.508,W,0,04,0.8,,M,,M,,*77
$GPGLL,3855.283,N,07702.508,W,171607.196,V*34
$GPVTG,3.85,T,,M,18.0,N,33.3,K*54
$GPRMC,171609.196,V,3855.285,N,07702.508,W,22.5,3.91,240416,,E*45
$GPGGA,171610.196,3855.285,N,07702.508,W,0,04,0.8,,M,,M,,*76
$GPGLL,3855.285,N,07702.508,W,171611.196,V*35
$GPVTG,3.91,T,,M,22.5,N,41.7,K*5C
$GPRMC,171613.196,V,3855.287,N,07702.508,W,60.0,4.01,240416,,E*41
$GPGGA,171614.196,3855.287,N,07702.508,W,0,04,0.8,,M,,M,,*70
$GPGLL,3855.287,N,07702.508,W,171615.196,V*33
$GPVTG,4.01,T,,M,60.0,N,111.2,K*60
$GPRMC,171617.196,V,3855.289,N,07702.508,W,70.1,3.98,240416,,E*4C
$GPGGA,171618.196,3855.289,N,07702.508,W,0,04,0.8,,M,,M,,*72
$GPGLL,3855.289,N,07702.508,W,171619.196,V*31
$GPVTG,3.98,T,,M,70.1,N,129.8,K*66
$GPRMC,171621.196,V,3855.290,N,07702.508,W,83.7,3.88,240416,,E*4A
$GPGGA,171622.196,3855.290,N,07702.508,W,0,04,0.8,,M,,M,,*73
$GPGLL,3855.290,N,07702.508,W,171623.196,V*30
$GPVTG,3.88,T,,M,83.7,N,155.0,K*6E
$GPRMC,171625.196,V,3855.292,N,07702.509,W,68.9,3.92,240416,,E*4D
$GPGGA,171626.196,3855.292,N,07702.509,W,0,04,0.8,,M,,M,,*74
$GPGLL,3855.292,N,07702.509,W,171627.196,V*37
$GPVTG,3.92,T,,M,68.9,N,127.5,K*6E
$GPRMC,171629.196,V,3855.294,N,07702.509,W,39.5,3.86,240416,,E*4A
$GPGGA,171630.196,3855.294,N,07702.509,W,0,04,0.8,,M,,M,,*75
$GPGLL,3855.294,N,07702.509,W,171631.196,V*36
$GPVTG,3.86,T,,M,39.5,N,73.2,K*54
$GPRMC,171633.196,V,3855.296,N,07702.509,W,25.2,3.81,240416,,E*4E
$GPGGA,171634.196,3855.296,N,07702.509,W,0,04,0.8,,M,,M,,*73
$GPGLL,3855.296,N,07702.509,W,171635.196,V*30
$GPVTG,3.81,T,,M,25.2,N,46.6,K*5B
$GPGSA,A,3,12,04,18,12,10,08,,,,,,,0.6,0.5,0.4*31
$GPGSV,2,1,06,12,29,139,53,04,18,146,40,18,62,245,79,12,42,026,68*7C
$GPGSV,2,2,06,10,09,054,41,08,37,063,74*79
$GPRMC,171640.196,V,3855.297,N,07702.510,W,10.2,3.83,240416,,E*47
$GPGGA,171641.196,3855.297,N,07702.510,W,0,04,0.5,,M,,M,,*75
$GPGLL,3855.297,N,07702.510,W,171642.196,V*39
$GPVTG,3.83,T,,M,10.2,N,18.9,K*5B
$GPRMC,171644.196,V,3855.299,N,07702.510,W,35.0,3.90,240416,,E*4A
$GPGGA,171645.196,3855.299,N,07702.510,W,0,04,0.5,,M,,M,,*7F
$GPGLL,3855.299,N,07702.510,W,171646.196,V*33
$GPVTG,3.90,T,,M,35.0,N,64.8,K*56
$GPRMC,171648.196,V,3855.301,N,07702.510,W,72.8,3.92,240416,,E*4F
$GPGGA,171649.196,3855.301,N,07702.510,W,0,04,0.5,,M,,M,,*73
$GPGLL,3855.301,N,07702.510,W,171650.196,V*34
$GPVTG,3.92,T,,M,72.8,N,134.8,K*6B
$GPRMC,171652.196,V,3855.303,N,07702.511,W,18.5,3.89,240416,,E*4C
$GPGGA,171653.196,3855.303,N,07702.511,W,0,04,0.5,,M,,M,,*7B
$GPGLL,3855.303,N,07702.511,W,171654.196,V*33
$GPVTG,3.89,T,,M,18.5,N,34.3,K*5A
$GPRMC,171656.196,V,3855.304,N,07702.511,W,0.8,3.82,240416,,E*70
$GPGGA,171657.196,3855.304,N,07702.511,W,0,04,0.5,,M,,M,,*78
$GPGLL,3855.304,N,07702.511,W,171658.196,V*38
$GPVTG,3.82,T,,M,0.8,N,1.5,K*55
$GPRMC,171700.196,V,3855.306,N,07702.512,W,5.1,3.64,240416,,E*77
$GPGGA,171701.196,3855.306,N,07702.512,W,0,04,0.5,,M,,M,,*7B
$GPGLL,3855.306,N,07702.512,W,171702.196,V*37
$GPVTG,3.64,T,,M,5.1,N,9.4,K*58
$GPRMC,171704.196,V,3855.307,N,07702.513,W,92.8,3.62,240416,,E*42
$GPGGA,171705.196,3855.307,N,07702.513,W,0,04,0.5,,M,,M,,*7F
$GPGLL,3855.307,N,07702.513,W,171706.196,V*33
$GPVTG,3.62,T,,M,92.8,N,171.9,K*6A
$GPRMC,171708.196,V,3855.309,N,07702.514,W,99.0,3.53,240416,,E*46
$GPGGA,171709.196,3855.309,N,07702.514,W,0,04,0.5,,M,,M,,*7A
$GPGLL,3855.309,N,07702.514,W,171710.196,V*3D
$GPVTG,3.53,T,,M,99.0,N,183.4,K*6B
$GPRMC,171712.196,V,3855.310,N,07702.516,W,1.0,3.52,240416,,E*77
$GPGGA,171713.196,3855.310,N,07702.516,W,0,04,0.5,,M,,M,,*7B
$GPGLL,3855.310,N,07702.516,W,171714.196,V*33
$GPVTG,3.52,T,,M,1.0,N,1.9,K*5D
$GPRMC,171716.196,V,3855.311,N,07702.517,W,12.4,3.43,240416,,E*45
$GPGGA,171717.196,3855.311,N,07702.517,W,0,04,0.5,,M,,M,,*7F
$GPGLL,3855.311,N,07702.517,W,171718.196,V*3F
$GPVTG,3.43,T,,M,12.4,N,23.0,K*52
$GPGSA,A,2,12,04,18,12,10,08,,,,,,,0.9,0.5,0.5*3E
$GPGSV,2,1,06,12,30,339,52,04,62,327,53,18,69,011,57,12,52,171,66*75
$GPGSV,2,2,06,10,29,251,34,08,06,071,45*7D
$GPRMC,171723.196,V,3855.312,N,07702.518,W,33.5,3.48,240416,,E*46
$GPGGA,171724.196,3855.312,N,07702.518,W,0,04,0.5,,M,,M,,*73
$GPGLL,3855.312,N,07702.518,W,171725.196,V*3D
$GPVTG,3.48,T,,M,33.5,N,62.0,K*5E
$GPGSA,A,2,12,04,18,12,10,08,,,,,,,0.5,0.2,0.2*32
$GPGSV,2,1,06,12,14,064,38,04,40,298,28,18,21,080,33,12,18,122,33*73
$GPGSV,2,2,06,10,37,358,44,08,33,339,74*76
$GPRMC,171730.196,V,3855.314,N,07702.520,W,16.0,3.54,240416,,E*46
$GPGGA,171731.196,3855.314,N,07702.520,W,0,04,0.2,,M,,M,,*7D
$GPGLL,3855.314,N,07702.520,W,171732.196,V*36
$GPVTG,3.54,T,,M,16.0,N,29.7,K*59
$GPRMC,171734.196,V,3855.315,N,07702.521,W,43.2,3.58,240416,,E*4C
$GPGGA,171735.196,3855.315,N,07702.521,W,0,04,0.2,,M,,M,,*79
$GPGLL,3855.315,N,07702.521,W,171736.196,V*32
$GPVTG,3.58,T,,M,43.2,N,80.0,K*53
$GPRMC,171738.196,V,3855.317,N,07702.522,W,5.1,3.59,240416,,E*71
$GPGGA,171739.196,3855.317,N,07702.522,W,0,04,0.2,,M,,M,,*74
$GPGLL,3855.317,N,07702.522,W,171740.196,V*32
$GPVTG,3.59,T,,M,5.1,N,9.5,K*57
$GPRMC,171742.196,V,3855.318,N,07702.523,W,1.9,3.70,240416,,E*75
$GPGGA,171743.196,3855.318,N,07702.523,W,0,04,0.2,,M,,M,,*77
$GPGLL,3855.318,N,07702.523,W,171744.196,V*38
$GPVTG,3.70,T,,M,1.9,N,3.5,K*5A
$GPRMC,171746.196,V,3855.320,N,07702.523,W,75.0,3.75,240416,,E*45
$GPGGA,171747.196,3855.320,N,07702.523,W,0,04,0.2,,M,,M,,*78
$GPGLL,3855.320,N,07702.523,W,171748.196,V*3F
$GPVTG,3.75,T,,M,75.0,N,138.9,K*60
$GPRMC,171750.196,V,3855.322,N,07702.524,W,18.5,3.83,240416,,E*40
$GPGGA,171751.196,3855.322,N,07702.524,W,0,04,0.2,,M,,M,,*7A
$GPGLL,3855.322,N,07702.524,W,171752.196,V*31
$GPVTG,3.83,T,,M,18.5,N,34.3,K*50
$GPGSA,A,3,12,04,18,12,10,08,,,,,,,0.1,0.1,0.6*30
$GPGSV,2,1,06,12,69,115,31,04,12,353,84,18,30,304,70,12,39,016,67*7C
$GPGSV,2,2,06,10,49,321,26,08,26,292,88*72
$GPRMC,171757.196,V,3855.323,N,07702.524,W,17.3,3.79,240416,,E*4A
$GPGGA,171758.196,3855.323,N,07702.524,W,0,04,0.1,,M,,M,,*71
$GPGLL,3855.323,N,07702.524,W,171759.196,V*3B
$GPVTG,3.79,T,,M,17.3,N,32.1,K*58
$GPRMC,171801.196,V,3855.325,N,07702.525,W,83.6,3.82,240416,,E*4D
$GPGGA,171802.196,3855.325,N,07702.525,W,0,04,0.1,,M,,M,,*76
$GPGLL,3855.325,N,07702.525,W,171803.196,V*3C
$GPVTG,3.82,T,,M,83.6,N,154.8,K*6C
$GPRMC,171805.196,V,3855.327,N,07702.525,W,87.8,3.85,240416,,E*46
$GPGGA,171806.196,3855.327,N,07702.525,W,0,04,0.1,,M,,M,,*70
