$GPGGA,090000,4051.258014,N,11907.080855,W,1,5,2.87,160.0,M,-21.321,M,,*7C
$GPRMC,090000,A,4051.258014,N,11907.080855,W,,,,,*02
$GPGGA,090000.050,4051.258014,N,11907.080855,W,1,5,2.87,160.0,M,-21.321,M,,*67
$GPRMC,090000.050,A,4051.258014,N,11907.080855,W,0.0,0.00,,,*29
$GPGGA,090000.100,4051.258014,N,11907.080855,W,1,5,2.87,160.0,M,-21.321,M,,*63
$GPRMC,090000.100,A,4051.258014,N,11907.080855,W,0.0,0.00,,,*2D
$GPGGA,090000.150,4051.258014,N,11907.080855,W,1,5,2.87,160.0,M,-21.321,M,,*66
$GPRMC,090000.150,A,4051.258014,N,11907.080855,W,0.0,0.00,,,*28
$GPGGA,090000.200,4051.258014,N,11907.080855,W,1,5,2.87,160.0,M,-21.321,M,,*60
$GPRMC,090000.200,A,4051.258014,N,11907.080855,W,0.0,0.00,,,*2E
$GPGGA,090000.250,4051.258014,N,11907.080855,W,1,5,2.87,160.0,M,-21.321,M,,*65
$GPRMC,090000.250,A,4051.258014,N,11907.080855,W,0.0,0.00,,,*2B
$GPGGA,090000.300,4051.258014,N,11907.080855,W,1,5,2.87,160.0,M,-21.321,M,,*61
$GPRMC,090000.300,A,4051.258014,N,11907.080855,W,0.0,0.00,,,*2F
$GPGGA,090000.350,4051.258014,N,11907.080855,W,1,5,2.87,160.0,M,-21.321,M,,*64
$GPRMC,090000.350,A,4051.258014,N,11907.080855,W,0.0,0.00,,,*2A
$GPGGA,090000.400,4051.258014,N,11907.080855,W,1,5,2.87,160.0,M,-21.321,M,,*66
$GPRMC,090000.400,A,4051.258014,N,11907.080855,W,0.0,0.00,,,*28
$GPGGA,090000.450,4051.258014,N,11907.080855,W,1,5,2.87,160.0,M,-21.321,M,,*63
$GPRMC,090000.450,A,4051.258014,N,11907.080855,W,0.0,0.00,,,*2D
$GPGGA,090000.500,4051.258014,N,11907.080855,W,1,5,2.87,160.0,M,-21.321,M,,*67
$GPRMC,090000.500,A,4051.258014,N,11907.080855,W,0.0,0.00,,,*29
$GPGGA,090000.550,4051.258014,N,11907.080855,W,1,5,2.87,160.0,M,-21.321,M,,*62
$GPRMC,090000.550,A,4051.258014,N,11907.080855,W,0.0,0.00,,,*2C
$GPGGA,090000.600,4051.258014,N,11907.080855,W,1,5,2.87,160.0,M,-21.321,M,,*64
$GPRMC,090000.600,A,4051.258014,N,11907.080855,W,0.0,0.00,,,*2A
$GPGGA,090000.650,4051.258014,N,11907.080855,W,1,5,2.87,160.0,M,-21.321,M,,*61
$GPRMC,090000.650,A,4051.258014,N,11907.080855,W,0.0,0.00,,,*2F
$GPGGA,090000.700,4051.258014,N,11907.080855,W,1,5,2.87,160.0,M,-21.321,M,,*65
$GPRMC,090000.700,A,4051.258014,N,11907.080855,W,0.0,0.00,,,*2B
$GPGGA,090000.750,4051.258014,N,11907.080855,W,1,5,2.87,160.0,M,-21.321,M,,*60
$GPRMC,090000.750,A,4051.258014,N,11907.080855,W,0.0,0.00,,,*2E
$GPGGA,090000.800,4051.258014,N,11907.080855,W,1,5,2.87,160.0,M,-21.321,M,,*6A
$GPRMC,090000.800,A,4051.258014,N,11907.080855,W,0.0,0.00,,,*24
$GPGGA,090000.850,4051.258014,N,11907.080855,W,1,5,2.87,160.0,M,-21.321,M,,*6F
$GPRMC,090000.850,A,4051.258014,N,11907.080855,W,0.0,0.00,,,*21
$GPGGA,090000.900,4051.258014,N,11907.080855,W,1,5,2.87,160.0,M,-21.321,M,,*6B
$GPRMC,090000.900,A,4051.258014,N,11907.080855,W,0.0,0.00,,,*25
$GPGGA,090000.950,4051.258014,N,11907.080855,W,1,5,2.87,160.0,M,-21.321,M,,*6E
$GPRMC,090000.950,A,4051.258014,N,11907.080855,W,0.0,0.00,,,*20
$GPGGA,090001,4051.258014,N,11907.080855,W,1,5,2.87,160.0,M,-21.321,M,,*7D
$GPRMC,090001,A,4051.258014,N,11907.080855,W,0.0,0.00,,,*33
$GPGGA,090001.050,4051.258014,N,11907.080855,W,1,5,2.87,160.0,M,-21.321,M,,*66
$GPRMC,090001.050,A,4051.258014,N,11907.080855,W,0.0,0.00,,,*28
$GPGGA,090001.100,4051.258014,N,11907.080855,W,1,5,2.87,160.0,M,-21.321,M,,*62
$GPRMC,090001.100,A,4051.258014,N,11907.080855,W,0.0,0.00,,,*2C
$GPGGA,090001.150,4051.258014,N,11907.080855,W,1,5,2.87,160.0,M,-21.321,M,,*67
$GPRMC,090001.150,A,4051.258014,N,11907.080855,W,0.0,0.00,,,*29
$GPGGA,090001.200,4051.258014,N,11907.080855,W,1,5,2.87,160.0,M,-21.321,M,,*61
$GPRMC,090001.200,A,4051.258014,N,11907.080855,W,0.0,0.00,,,*2F
$GPGGA,090001.250,4051.258014,N,11907.080855,W,1,5,2.87,160.0,M,-21.321,M,,*64
$GPRMC,090001.250,A,4051.258014,N,11907.080855,W,0.0,0.00,,,*2A
$GPGGA,090001.300,4051.258014,N,11907.080855,W,1,5,2.87,160.0,M,-21.321,M,,*60
$GPRMC,090001.300,A,4051.258014,N,11907.080855,W,0.0,0.00,,,*2E
$GPGGA,090001.350,4051.258014,N,11907.080855,W,1,5,2.87,160.0,M,-21.321,M,,*65
$GPRMC,090001.350,A,4051.258014,N,11907.080855,W,0.0,0.00,,,*2B
$GPGGA,090001.400,4051.258014,N,11907.080855,W,1,5,2.87,160.0,M,-21.321,M,,*67
$GPRMC,090001.400,A,4051.258014,N,11907.080855,W,0.0,0.00,,,*29
$GPGGA,090001.450,4051.258014,N,11907.080855,W,1,5,2.87,160.0,M,-21.321,M,,*62
$GPRMC,090001.450,A,4051.258014,N,11907.080855,W,0.0,0.00,,,*2C
$GPGGA,090001.500,4051.258014,N,11907.080855,W,1,5,2.87,160.0,M,-21.321,M,,*66
$GPRMC,090001.500,A,4051.258014,N,11907.080855,W,0.0,0.00,,,*28
$GPGGA,090001.550,4051.258014,N,11907.080855,W,1,5,2.87,160.0,M,-21.321,M,,*63
$GPRMC,090001.550,A,4051.258014,N,11907.080855,W,0.0,0.00,,,*2D
$GPGGA,090001.600,4051.258014,N,11907.080855,W,1,5,2.87,160.0,M,-21.321,M,,*65
$GPRMC,090001.600,A,4051.258014,N,11907.080855,W,0.0,0.00,,,*2B
$GPGGA,090001.650,4051.258014,N,11907.080855,W,1,5,2.87,160.0,M,-21.321,M,,*60
$GPRMC,090001.650,A,4051.258014,N,11907.080855,W,0.0,0.00,,,*2E
$GPGGA,090001.700,4051.258014,N,11907.080855,W,1,5,2.87,160.0,M,-21.321,M,,*64
$GPRMC,090001.700,A,4051.258014,N,11907.080855,W,0.0,0.00,,,*2A
$GPGGA,090001.750,4051.258014,N,11907.080855,W,1,5,2.87,160.0,M,-21.321,M,,*61
$GPRMC,090001.750,A,4051.258014,N,11907.080855,W,0.0,0.00,,,*2F
$GPGGA,090001.800,4051.258014,N,11907.080855,W,1,5,2.87,160.0,M,-21.321,M,,*6B
$GPRMC,090001.800,A,4051.258014,N,11907.080855,W,0.0,0.00,,,*25
$GPGGA,090001.850,4051.258014,N,11907.080855,W,1,5,2.87,160.0,M,-21.321,M,,*6E
$GPRMC,090001.850,A,4051.258014,N,11907.080855,W,0.0,0.00,,,*20
$GPGGA,090001.900,4051.258014,N,11907.080855,W,1,5,2.87,160.0,M,-21.321,M,,*6A
$GPRMC,090001.900,A,4051.258014,N,11907.080855,W,0.0,0.00,,,*24
$GPGGA,090001.950,4051.258014,N,11907.080855,W,1,5,2.87,160.0,M,-21.321,M,,*6F
$GPRMC,090001.950,A,4051.258014,N,11907.080855,W,0.0,0.00,,,*21
$GPGGA,090002,4051.258014,N,11907.080855,W,1,5,2.87,160.0,M,-21.321,M,,*7E
$GPRMC,090002,A,4051.258014,N,11907.080855,W,0.0,0.00,,,*30
$GPGGA,090002.050,4051.258014,N,11907.080855,W,1,5,2.87,160.0,M,-21.321,M,,*65
$GPRMC,090002.050,A,4051.258014,N,11907.080855,W,0.0,0.00,,,*2B
$GPGGA,090002.100,4051.258014,N,11907.080855,W,1,5,2.87,160.0,M,-21.321,M,,*61
$GPRMC,090002.100,A,4051.258014,N,11907.080855,W,0.0,0.00,,,*2F
$GPGGA,090002.150,4051.258014,N,11907.080855,W,1,5,2.87,160.0,M,-21.321,M,,*64
$GPRMC,090002.150,A,4051.258014,N,11907.080855,W,0.0,0.00,,,*2A
$GPGGA,090002.200,4051.258014,N,11907.080855,W,1,5,2.87,160.0,M,-21.321,M,,*62
$GPRMC,090002.200,A,4051.258014,N,11907.080855,W,0.0,0.00,,,*2C
$GPGGA,090002.250,4051.258014,N,11907.080855,W,1,5,2.87,160.0,M,-21.321,M,,*67
$GPRMC,090002.250,A,4051.258014,N,11907.080855,W,0.0,0.00,,,*29
$GPGGA,090002.300,4051.258014,N,11907.080855,W,1,5,2.87,160.0,M,-21.321,M,,*63
$GPRMC,090002.300,A,4051.258014,N,11907.080855,W,0.0,0.00,,,*2D
$GPGGA,090002.350,4051.258014,N,11907.080855,W,1,5,2.87,160.0,M,-21.321,M,,*66
$GPRMC,090002.350,A,4051.258014,N,11907.080855,W,0.0,0.00,,,*28
$GPGGA,090002.400,4051.258014,N,11907.080855,W,1,5,2.87,160.0,M,-21.321,M,,*64
$GPRMC,090002.400,A,4051.258014,N,11907.080855,W,0.0,0.00,,,*2A
$GPGGA,090002.450,4051.258014,N,11907.080855,W,1,5,2.87,160.0,M,-21.321,M,,*61
$GPRMC,090002.450,A,4051.258014,N,11907.080855,W,0.0,0.00,,,*2F
$GPGGA,090002.500,4051.258014,N,11907.080855,W,1,5,2.87,160.0,M,-21.321,M,,*65
$GPRMC,090002.500,A,4051.258014,N,11907.080855,W,0.0,0.00,,,*2B
$GPGGA,090002.550,4051.258014,N,11907.080855,W,1,5,2.87,160.0,M,-21.321,M,,*60
$GPRMC,090002.550,A,4051.258014,N,11907.080855,W,0.0,0.00,,,*2E
$GPGGA,090002.600,4051.258014,N,11907.080855,W,1,5,2.87,160.0,M,-21.321,M,,*66
$GPRMC,090002.600,A,4051.258014,N,11907.080855,W,0.0,0.00,,,*28
$GPGGA,090002.650,4051.258014,N,11907.080855,W,1,5,2.87,160.0,M,-21.321,M,,*63
$GPRMC,090002.650,A,4051.258014,N,11907.080855,W,0.0,0.00,,,*2D
$GPGGA,090002.700,4051.258014,N,11907.080855,W,1,5,2.87,160.0,M,-21.321,M,,*67
$GPRMC,090002.700,A,4051.258014,N,11907.080855,W,0.0,0.00,,,*29
$GPGGA,090002.750,4051.258014,N,11907.080855,W,1,5,2.87,160.0,M,-21.321,M,,*62
$GPRMC,090002.750,A,4051.258014,N,11907.080855,W,0.0,0.00,,,*2C
$GPGGA,090002.800,4051.258014,N,11907.080855,W,1,5,2.87,160.0,M,-21.321,M,,*68
$GPRMC,090002.800,A,4051.258014,N,11907.080855,W,0.0,0.00,,,*26
$GPGGA,090002.850,4051.258014,N,11907.080855,W,1,5,2.87,160.0,M,-21.321,M,,*6D
$GPRMC,090002.850,A,4051.258014,N,11907.080855,W,0.0,0.00,,,*23
$GPGGA,090002.900,4051.258014,N,11907.080855,W,1,5,2.87,160.0,M,-21.321,M,,*69
$GPRMC,090002.900,A,4051.258014,N,11907.080855,W,0.0,0.00,,,*27
$GPGGA,090002.950,4051.258014,N,11907.080855,W,1,5,2.87,160.0,M,-21.321,M,,*6C
$GPRMC,090002.950,A,4051.258014,N,11907.080855,W,0.0,0.00,,,*22
$GPGGA,090003,4051.258014,N,11907.080855,W,1,5,2.87,160.0,M,-21.321,M,,*7F
$GPRMC,090003,A,4051.258014,N,11907.080855,W,0.0,0.00,,,*31
$GPGGA,090003.050,4051.258014,N,11907.080855,W,1,5,2.87,160.0,M,-21.321,M,,*64
$GPRMC,090003.050,A,4051.258014,N,11907.080855,W,0.0,0.00,,,*2A
$GPGGA,090003.100,4051.258014,N,11907.080855,W,1,5,2.87,160.0,M,-21.321,M,,*60
$GPRMC,090003.100,A,4051.258014,N,11907.080855,W,0.0,0.00,,,*2E
$GPGGA,090003.150,4051.258014,N,11907.080855,W,1,5,2.87,160.0,M,-21.321,M,,*65
$GPRMC,090003.150,A,4051.258014,N,11907.080855,W,0.0,0.00,,,*2B
$GPGGA,090003.200,4051.258014,N,11907.080855,W,1,5,2.87,160.0,M,-21.321,M,,*63
$GPRMC,090003.200,A,4051.258014,N,11907.080855,W,0.0,0.00,,,*2D
$GPGGA,090003.250,4051.258014,N,11907.080855,W,1,5,2.87,160.0,M,-21.321,M,,*66
$GPRMC,090003.250,A,4051.258014,N,11907.080855,W,0.0,0.00,,,*28
$GPGGA,090003.300,4051.258014,N,11907.080855,W,1,5,2.87,160.0,M,-21.321,M,,*62
$GPRMC,090003.300,A,4051.258014,N,11907.080855,W,0.0,0.00,,,*2C
$GPGGA,090003.350,4051.258014,N,11907.080855,W,1,5,2.87,160.0,M,-21.321,M,,*67
$GPRMC,090003.350,A,4051.258014,N,11907.080855,W,0.0,0.00,,,*29
$GPGGA,090003.400,4051.258014,N,11907.080855,W,1,5,2.87,160.0,M,-21.321,M,,*65
$GPRMC,090003.400,A,4051.258014,N,11907.080855,W,0.0,0.00,,,*2B
$GPGGA,090003.450,4051.258014,N,11907.080855,W,1,5,2.87,160.0,M,-21.321,M,,*60
$GPRMC,090003.450,A,4051.258014,N,11907.080855,W,0.0,0.00,,,*2E
$GPGGA,090003.500,4051.258014,N,11907.080855,W,1,5,2.87,160.0,M,-21.321,M,,*64
$GPRMC,090003.500,A,4051.258014,N,11907.080855,W,0.0,0.00,,,*2A
$GPGGA,090003.550,4051.258014,N,11907.080855,W,1,5,2.87,160.0,M,-21.321,M,,*61
$GPRMC,090003.550,A,4051.258014,N,11907.080855,W,0.0,0.00,,,*2F
$GPGGA,090003.600,4051.258014,N,11907.080855,W,1,5,2.87,160.0,M,-21.321,M,,*67
$GPRMC,090003.600,A,4051.258014,N,11907.080855,W,0.0,0.00,,,*29
$GPGGA,090003.650,4051.258014,N,11907.080855,W,1,5,2.87,160.0,M,-21.321,M,,*62
$GPRMC,090003.650,A,4051.258014,N,11907.080855,W,0.0,0.00,,,*2C
$GPGGA,090003.700,4051.258014,N,11907.080855,W,1,5,2.87,160.0,M,-21.321,M,,*66
$GPRMC,090003.700,A,4051.258014,N,11907.080855,W,0.0,0.00,,,*28
$GPGGA,090003.750,4051.258014,N,11907.080855,W,1,5,2.87,160.0,M,-21.321,M,,*63
$GPRMC,090003.750,A,4051.258014,N,11907.080855,W,0.0,0.00,,,*2D
$GPGGA,090003.800,4051.258014,N,11907.080855,W,1,5,2.87,160.0,M,-21.321,M,,*69
$GPRMC,090003.800,A,4051.258014,N,11907.080855,W,0.0,0.00,,,*27
$GPGGA,090003.850,4051.258014,N,11907.080855,W,1,5,2.87,160.0,M,-21.321,M,,*6C
$GPRMC,090003.850,A,4051.258014,N,11907.080855,W,0.0,0.00,,,*22
$GPGGA,090003.900,4051.258014,N,11907.080855,W,1,5,2.87,160.0,M,-21.321,M,,*68
$GPRMC,090003.900,A,4051.258014,N,11907.080855,W,0.0,0.00,,,*26
$GPGGA,090003.950,4051.258014,N,11907.080855,W,1,5,2.87,160.0,M,-21.321,M,,*6D
$GPRMC,090003.950,A,4051.258014,N,11907.080855,W,0.0,0.00,,,*23
$GPGGA,090004,4051.258014,N,11907.080855,W,1,5,2.87,160.0,M,-21.321,M,,*78
$GPRMC,090004,A,4051.258014,N,11907.080855,W,0.0,0.00,,,*36
$GPGGA,090004.050,4051.258014,N,11907.080855,W,1,5,2.87,160.0,M,-21.321,M,,*63
$GPRMC,090004.050,A,4051.258014,N,11907.080855,W,0.0,0.00,,,*2D
$GPGGA,090004.100,4051.258014,N,11907.080855,W,1,5,2.87,160.0,M,-21.321,M,,*67
$GPRMC,090004.100,A,4051.258014,N,11907.080855,W,0.0,0.00,,,*29
$GPGGA,090004.150,4051.258014,N,11907.080855,W,1,5,2.87,160.0,M,-21.321,M,,*62
$GPRMC,090004.150,A,4051.258014,N,11907.080855,W,0.0,0.00,,,*2C
$GPGGA,090004.200,4051.258014,N,11907.080855,W,1,5,2.87,160.0,M,-21.321,M,,*64
$GPRMC,090004.200,A,4051.258014,N,11907.080855,W,0.0,0.00,,,*2A
$GPGGA,090004.250,4051.258014,N,11907.080855,W,1,5,2.87,160.0,M,-21.321,M,,*61
$GPRMC,090004.250,A,4051.258014,N,11907.080855,W,0.0,0.00,,,*2F
$GPGGA,090004.300,4051.258014,N,11907.080855,W,1,5,2.87,160.0,M,-21.321,M,,*65
$GPRMC,090004.300,A,4051.258014,N,11907.080855,W,0.0,0.00,,,*2B
$GPGGA,090004.350,4051.258014,N,11907.080855,W,1,5,2.87,160.0,M,-21.321,M,,*60
$GPRMC,090004.350,A,4051.258014,N,11907.080855,W,0.0,0.00,,,*2E
$GPGGA,090004.400,4051.258014,N,11907.080855,W,1,5,2.87,160.0,M,-21.321,M,,*62
$GPRMC,090004.400,A,4051.258014,N,11907.080855,W,0.0,0.00,,,*2C
$GPGGA,090004.450,4051.258014,N,11907.080855,W,1,5,2.87,160.0,M,-21.321,M,,*67
$GPRMC,090004.450,A,4051.258014,N,11907.080855,W,0.0,0.00,,,*29
$GPGGA,090004.500,4051.258014,N,11907.080855,W,1,5,2.87,160.0,M,-21.321,M,,*63
$GPRMC,090004.500,A,4051.258014,N,11907.080855,W,0.0,0.00,,,*2D
$GPGGA,090004.550,4051.258014,N,11907.080855,W,1,5,2.87,160.0,M,-21.321,M,,*66
$GPRMC,090004.550,A,4051.258014,N,11907.080855,W,0.0,0.00,,,*28
$GPGGA,090004.600,4051.258014,N,11907.080855,W,1,5,2.87,160.0,M,-21.321,M,,*60
$GPRMC,090004.600,A,4051.258014,N,11907.080855,W,0.0,0.00,,,*2E
$GPGGA,090004.650,4051.258014,N,11907.080855,W,1,5,2.87,160.0,M,-21.321,M,,*65
$GPRMC,090004.650,A,4051.258014,N,11907.080855,W,0.0,0.00,,,*2B
$GPGGA,090004.700,4051.258014,N,11907.080855,W,1,5,2.87,160.0,M,-21.321,M,,*61
$GPRMC,090004.700,A,4051.258014,N,11907.080855,W,0.0,0.00,,,*2F
$GPGGA,090004.750,4051.258014,N,11907.080855,W,1,5,2.87,160.0,M,-21.321,M,,*64
$GPRMC,090004.750,A,4051.258014,N,11907.080855,W,0.0,0.00,,,*2A
$GPGGA,090004.800,4051.258014,N,11907.080855,W,1,5,2.87,160.0,M,-21.321,M,,*6E
$GPRMC,090004.800,A,4051.258014,N,11907.080855,W,0.0,0.00,,,*20
$GPGGA,090004.850,4051.258014,N,11907.080855,W,1,5,2.87,160.0,M,-21.321,M,,*6B
$GPRMC,090004.850,A,4051.258014,N,11907.080855,W,0.0,0.00,,,*25
$GPGGA,090004.900,4051.258014,N,11907.080855,W,1,5,2.87,160.0,M,-21.321,M,,*6F
$GPRMC,090004.900,A,4051.258014,N,11907.080855,W,0.0,0.00,,,*21
$GPGGA,090004.950,4051.258014,N,11907.080855,W,1,5,2.87,160.0,M,-21.321,M,,*6A
$GPRMC,090004.950,A,4051.258014,N,11907.080855,W,0.0,0.00,,,*24
$GPGGA,090005,4051.258014,N,11907.080855,W,1,5,2.87,160.0,M,-21.321,M,,*79
$GPRMC,090005,A,4051.258014,N,11907.080855,W,0.0,0.00,,,*37
$GPGGA,090005.050,4051.258014,N,11907.080855,W,1,5,2.87,160.0,M,-21.321,M,,*62
$GPRMC,090005.050,A,4051.258014,N,11907.080855,W,0.0,0.00,,,*2C
$GPGGA,090005.100,4051.258014,N,11907.080855,W,1,5,2.87,160.0,M,-21.321,M,,*66
$GPRMC,090005.100,A,4051.258014,N,11907.080855,W,0.0,0.00,,,*28
$GPGGA,090005.150,4051.258014,N,11907.080855,W,1,5,2.87,160.0,M,-21.321,M,,*63
$GPRMC,090005.150,A,4051.258014,N,11907.080855,W,0.0,0.00,,,*2D
$GPGGA,090005.200,4051.258014,N,11907.080855,W,1,5,2.87,160.0,M,-21.321,M,,*65
$GPRMC,090005.200,A,4051.258014,N,11907.080855,W,0.0,0.00,,,*2B
$GPGGA,090005.250,4051.258014,N,11907.080855,W,1,5,2.87,160.0,M,-21.321,M,,*60
$GPRMC,090005.250,A,4051.258014,N,11907.080855,W,0.0,0.00,,,*2E
$GPGGA,090005.300,4051.258014,N,11907.080855,W,1,5,2.87,160.0,M,-21.321,M,,*64
$GPRMC,090005.300,A,4051.258014,N,11907.080855,W,0.0,0.00,,,*2A
$GPGGA,090005.350,4051.258014,N,11907.080855,W,1,5,2.87,160.0,M,-21.321,M,,*61
$GPRMC,090005.350,A,4051.258014,N,11907.080855,W,0.0,0.00,,,*2F
$GPGGA,090005.400,4051.258014,N,11907.080855,W,1,5,2.87,160.0,M,-21.321,M,,*63
$GPRMC,090005.400,A,4051.258014,N,11907.080855,W,0.0,0.00,,,*2D
$GPGGA,090005.450,4051.258014,N,11907.080855,W,1,5,2.87,160.0,M,-21.321,M,,*66
$GPRMC,090005.450,A,4051.258014,N,11907.080855,W,0.0,0.00,,,*28
$GPGGA,090005.500,4051.258014,N,11907.080855,W,1,5,2.87,160.0,M,-21.321,M,,*62
$GPRMC,090005.500,A,4051.258014,N,11907.080855,W,0.0,0.00,,,*2C
$GPGGA,090005.550,4051.258014,N,11907.080855,W,1,5,2.87,160.0,M,-21.321,M,,*67
$GPRMC,090005.550,A,4051.258014,N,11907.080855,W,0.0,0.00,,,*29
$GPGGA,090005.600,4051.258014,N,11907.080855,W,1,5,2.87,160.0,M,-21.321,M,,*61
$GPRMC,090005.600,A,4051.258014,N,11907.080855,W,0.0,0.00,,,*2F
$GPGGA,090005.650,4051.258014,N,11907.080855,W,1,5,2.87,160.0,M,-21.321,M,,*64
$GPRMC,090005.650,A,4051.258014,N,11907.080855,W,0.0,0.00,,,*2A
$GPGGA,090005.700,4051.258014,N,11907.080855,W,1,5,2.87,160.0,M,-21.321,M,,*60
$GPRMC,090005.700,A,4051.258014,N,11907.080855,W,0.0,0.00,,,*2E
$GPGGA,090005.750,4051.258014,N,11907.080855,W,1,5,2.87,160.0,M,-21.321,M,,*65
$GPRMC,090005.750,A,4051.258014,N,11907.080855,W,0.0,0.00,,,*2B
$GPGGA,090005.800,4051.258014,N,11907.080855,W,1,5,2.87,160.0,M,-21.321,M,,*6F
$GPRMC,090005.800,A,4051.258014,N,11907.080855,W,0.0,0.00,,,*21
$GPGGA,090005.850,4051.258014,N,11907.080855,W,1,5,2.87,160.0,M,-21.321,M,,*6A
$GPRMC,090005.850,A,4051.258014,N,11907.080855,W,0.0,0.00,,,*24
$GPGGA,090005.900,4051.258014,N,11907.080855,W,1,5,2.87,160.0,M,-21.321,M,,*6E
$GPRMC,090005.900,A,4051.258014,N,11907.080855,W,0.0,0.00,,,*20
$GPGGA,090005.950,4051.258014,N,11907.080855,W,1,5,2.87,160.0,M,-21.321,M,,*6B
$GPRMC,090005.950,A,4051.258014,N,11907.080855,W,0.0,0.00,,,*25
$GPGGA,090006,4051.258014,N,11907.080855,W,1,5,2.87,160.0,M,-21.321,M,,*7A
$GPRMC,090006,A,4051.258014,N,11907.080855,W,0.0,0.00,,,*34
$GPGGA,090006.050,4051.258014,N,11907.080855,W,1,5,2.87,160.0,M,-21.321,M,,*61
$GPRMC,090006.050,A,4051.258014,N,11907.080855,W,0.0,0.00,,,*2F
$GPGGA,090006.100,4051.258014,N,11907.080855,W,1,5,2.87,160.0,M,-21.321,M,,*65
$GPRMC,090006.100,A,4051.258014,N,11907.080855,W,0.0,0.00,,,*2B
$GPGGA,090006.150,4051.258014,N,11907.080855,W,1,5,2.87,160.0,M,-21.321,M,,*60
$GPRMC,090006.150,A,4051.258014,N,11907.080855,W,0.0,0.00,,,*2E
$GPGGA,090006.200,4051.258014,N,11907.080855,W,1,5,2.87,160.0,M,-21.321,M,,*66
$GPRMC,090006.200,A,4051.258014,N,11907.080855,W,0.0,0.00,,,*28
$GPGGA,090006.250,4051.258014,N,11907.080855,W,1,5,2.87,160.0,M,-21.321,M,,*63
$GPRMC,090006.250,A,4051.258014,N,11907.080855,W,0.0,0.00,,,*2D
$GPGGA,090006.300,4051.258014,N,11907.080855,W,1,5,2.87,160.0,M,-21.321,M,,*67
$GPRMC,090006.300,A,4051.258014,N,11907.080855,W,0.0,0.00,,,*29
$GPGGA,090006.350,4051.258014,N,11907.080855,W,1,5,2.87,160.0,M,-21.321,M,,*62
$GPRMC,090006.350,A,4051.258014,N,11907.080855,W,0.0,0.00,,,*2C
$GPGGA,090006.400,4051.258014,N,11907.080855,W,1,5,2.87,160.0,M,-21.321,M,,*60
$GPRMC,090006.400,A,4051.258014,N,11907.080855,W,0.0,0.00,,,*2E
$GPGGA,090006.450,4051.258014,N,11907.080855,W,1,5,2.87,160.0,M,-21.321,M,,*65
$GPRMC,090006.450,A,4051.258014,N,11907.080855,W,0.0,0.00,,,*2B
$GPGGA,090006.500,4051.258014,N,11907.080855,W,1,5,2.87,160.0,M,-21.321,M,,*61
$GPRMC,090006.500,A,4051.258014,N,11907.080855,W,0.0,0.00,,,*2F
$GPGGA,090006.550,4051.258014,N,11907.080855,W,1,5,2.87,160.0,M,-21.321,M,,*64
$GPRMC,090006.550,A,4051.258014,N,11907.080855,W,0.0,0.00,,,*2A
$GPGGA,090006.600,4051.258014,N,11907.080855,W,1,5,2.87,160.0,M,-21.321,M,,*62
$GPRMC,090006.600,A,4051.258014,N,11907.080855,W,0.0,0.00,,,*2C
$GPGGA,090006.650,4051.258014,N,11907.080855,W,1,5,2.87,160.0,M,-21.321,M,,*67
$GPRMC,090006.650,A,4051.258014,N,11907.080855,W,0.0,0.00,,,*29
$GPGGA,090006.700,4051.258014,N,11907.080855,W,1,5,2.87,160.0,M,-21.321,M,,*63
$GPRMC,090006.700,A,4051.258014,N,11907.080855,W,0.0,0.00,,,*2D
$GPGGA,090006.750,4051.258014,N,11907.080855,W,1,5,2.87,160.0,M,-21.321,M,,*66
$GPRMC,090006.750,A,4051.258014,N,11907.080855,W,0.0,0.00,,,*28
$GPGGA,090006.800,4051.258014,N,11907.080855,W,1,5,2.87,160.0,M,-21.321,M,,*6C
$GPRMC,090006.800,A,4051.258014,N,11907.080855,W,0.0,0.00,,,*22
$GPGGA,090006.850,4051.258014,N,11907.080855,W,1,5,2.87,160.0,M,-21.321,M,,*69
$GPRMC,090006.850,A,4051.258014,N,11907.080855,W,0.0,0.00,,,*27
$GPGGA,090006.900,4051.258014,N,11907.080855,W,1,5,2.87,160.0,M,-21.321,M,,*6D
$GPRMC,090006.900,A,4051.258014,N,11907.080855,W,0.0,0.00,,,*23
$GPGGA,090006.950,4051.258014,N,11907.080855,W,1,5,2.87,160.0,M,-21.321,M,,*68
$GPRMC,090006.950,A,4051.258014,N,11907.080855,W,0.0,0.00,,,*26
$GPGGA,090007,4051.258014,N,11907.080855,W,1,5,2.87,160.0,M,-21.321,M,,*7B
$GPRMC,090007,A,4051.258014,N,11907.080855,W,0.0,0.00,,,*35
$GPGGA,090007.050,4051.258014,N,11907.080855,W,1,5,2.87,160.0,M,-21.321,M,,*60
$GPRMC,090007.050,A,4051.258014,N,11907.080855,W,0.0,0.00,,,*2E
$GPGGA,090007.100,4051.258014,N,11907.080855,W,1,5,2.87,160.0,M,-21.321,M,,*64
$GPRMC,090007.100,A,4051.258014,N,11907.080855,W,0.0,0.00,,,*2A
$GPGGA,090007.150,4051.258014,N,11907.080855,W,1,5,2.87,160.0,M,-21.321,M,,*61
$GPRMC,090007.150,A,4051.258014,N,11907.080855,W,0.0,0.00,,,*2F
$GPGGA,090007.200,4051.258014,N,11907.080855,W,1,5,2.87,160.0,M,-21.321,M,,*67
$GPRMC,090007.200,A,4051.258014,N,11907.080855,W,0.0,0.00,,,*29
$GPGGA,090007.250,4051.258014,N,11907.080855,W,1,5,2.87,160.0,M,-21.321,M,,*62
$GPRMC,090007.250,A,4051.258014,N,11907.080855,W,0.0,0.00,,,*2C
$GPGGA,090007.300,4051.258014,N,11907.080855,W,1,5,2.87,160.0,M,-21.321,M,,*66
$GPRMC,090007.300,A,4051.258014,N,11907.080855,W,0.0,0.00,,,*28
$GPGGA,090007.350,4051.258014,N,11907.080855,W,1,5,2.87,160.0,M,-21.321,M,,*63
$GPRMC,090007.350,A,4051.258014,N,11907.080855,W,0.0,0.00,,,*2D
$GPGGA,090007.400,4051.258014,N,11907.080855,W,1,5,2.87,160.0,M,-21.321,M,,*61
$GPRMC,090007.400,A,4051.258014,N,11907.080855,W,0.0,0.00,,,*2F
$GPGGA,090007.450,4051.258014,N,11907.080855,W,1,5,2.87,160.0,M,-21.321,M,,*64
$GPRMC,090007.450,A,4051.258014,N,11907.080855,W,0.0,0.00,,,*2A
$GPGGA,090007.500,4051.258014,N,11907.080855,W,1,5,2.87,160.0,M,-21.321,M,,*60
$GPRMC,090007.500,A,4051.258014,N,11907.080855,W,0.0,0.00,,,*2E
$GPGGA,090007.550,4051.258014,N,11907.080855,W,1,5,2.87,160.0,M,-21.321,M,,*65
$GPRMC,090007.550,A,4051.258014,N,11907.080855,W,0.0,0.00,,,*2B
$GPGGA,090007.600,4051.258014,N,11907.080855,W,1,5,2.87,160.0,M,-21.321,M,,*63
$GPRMC,090007.600,A,4051.258014,N,11907.080855,W,0.0,0.00,,,*2D
$GPGGA,090007.650,4051.258014,N,11907.080855,W,1,5,2.87,160.0,M,-21.321,M,,*66
$GPRMC,090007.650,A,4051.258014,N,11907.080855,W,0.0,0.00,,,*28
$GPGGA,090007.700,4051.258014,N,11907.080855,W,1,5,2.87,160.0,M,-21.321,M,,*62
$GPRMC,090007.700,A,4051.258014,N,11907.080855,W,0.0,0.00,,,*2C
$GPGGA,090007.750,4051.258014,N,11907.080855,W,1,5,2.87,160.0,M,-21.321,M,,*67
$GPRMC,090007.750,A,4051.258014,N,11907.080855,W,0.0,0.00,,,*29
$GPGGA,090007.800,4051.258014,N,11907.080855,W,1,5,2.87,160.0,M,-21.321,M,,*6D
$GPRMC,090007.800,A,4051.258014,N,11907.080855,W,0.0,0.00,,,*23
$GPGGA,090007.850,4051.258014,N,11907.080855,W,1,5,2.87,160.0,M,-21.321,M,,*68
$GPRMC,090007.850,A,4051.258014,N,11907.080855,W,0.0,0.00,,,*26
$GPGGA,090007.900,4051.258014,N,11907.080855,W,1,5,2.87,160.0,M,-21.321,M,,*6C
$GPRMC,090007.900,A,4051.258014,N,11907.080855,W,0.0,0.00,,,*22
$GPGGA,090007.950,4051.258014,N,11907.080855,W,1,5,2.87,160.0,M,-21.321,M,,*69
$GPRMC,090007.950,A,4051.258014,N,11907.080855,W,0.0,0.00,,,*27
$GPGGA,090008,4051.258014,N,11907.080855,W,1,5,2.87,160.0,M,-21.321,M,,*74
$GPRMC,090008,A,4051.258014,N,11907.080855,W,0.0,0.00,,,*3A
$GPGGA,090008.050,4051.258014,N,11907.080855,W,1,5,2.87,160.0,M,-21.321,M,,*6F
$GPRMC,090008.050,A,4051.258014,N,11907.080855,W,0.0,0.00,,,*21
$GPGGA,090008.100,4051.258014,N,11907.080855,W,1,5,2.87,160.0,M,-21.321,M,,*6B
$GPRMC,090008.100,A,4051.258014,N,11907.080855,W,0.0,0.00,,,*25
$GPGGA,090008.150,4051.258014,N,11907.080855,W,1,5,2.87,160.0,M,-21.321,M,,*6E
$GPRMC,090008.150,A,4051.258014,N,11907.080855,W,0.0,0.00,,,*20
$GPGGA,090008.200,4051.258014,N,11907.080855,W,1,5,2.87,160.0,M,-21.321,M,,*68
$GPRMC,090008.200,A,4051.258014,N,11907.080855,W,0.0,0.00,,,*26
$GPGGA,090008.250,4051.258014,N,11907.080855,W,1,5,2.87,160.0,M,-21.321,M,,*6D
$GPRMC,090008.250,A,4051.258014,N,11907.080855,W,0.0,0.00,,,*23
$GPGGA,090008.300,4051.258014,N,11907.080855,W,1,5,2.87,160.0,M,-21.321,M,,*69
$GPRMC,090008.300,A,4051.258014,N,11907.080855,W,0.0,0.00,,,*27
$GPGGA,090008.350,4051.258014,N,11907.080855,W,1,5,2.87,160.0,M,-21.321,M,,*6C
$GPRMC,090008.350,A,4051.258014,N,11907.080855,W,0.0,0.00,,,*22
$GPGGA,090008.400,4051.258014,N,11907.080855,W,1,5,2.87,160.0,M,-21.321,M,,*6E
$GPRMC,090008.400,A,4051.258014,N,11907.080855,W,0.0,0.00,,,*20
$GPGGA,090008.450,4051.258014,N,11907.080855,W,1,5,2.87,160.0,M,-21.321,M,,*6B
$GPRMC,090008.450,A,4051.258014,N,11907.080855,W,0.0,0.00,,,*25
$GPGGA,090008.500,4051.258014,N,11907.080855,W,1,5,2.87,160.0,M,-21.321,M,,*6F
$GPRMC,090008.500,A,4051.258014,N,11907.080855,W,0.0,0.00,,,*21
$GPGGA,090008.550,4051.258014,N,11907.080855,W,1,5,2.87,160.0,M,-21.321,M,,*6A
$GPRMC,090008.550,A,4051.258014,N,11907.080855,W,0.0,0.00,,,*24
$GPGGA,090008.600,4051.258014,N,11907.080855,W,1,5,2.87,160.0,M,-21.321,M,,*6C
$GPRMC,090008.600,A,4051.258014,N,11907.080855,W,0.0,0.00,,,*22
$GPGGA,090008.650,4051.258014,N,11907.080855,W,1,5,2.87,160.0,M,-21.321,M,,*69
$GPRMC,090008.650,A,4051.258014,N,11907.080855,W,0.0,0.00,,,*27
$GPGGA,090008.700,4051.258014,N,11907.080855,W,1,5,2.87,160.0,M,-21.321,M,,*6D
$GPRMC,090008.700,A,4051.258014,N,11907.080855,W,0.0,0.00,,,*23
$GPGGA,090008.750,4051.258014,N,11907.080855,W,1,5,2.87,160.0,M,-21.321,M,,*68
$GPRMC,090008.750,A,4051.258014,N,11907.080855,W,0.0,0.00,,,*26
$GPGGA,090008.800,4051.258014,N,11907.080855,W,1,5,2.87,160.0,M,-21.321,M,,*62
$GPRMC,090008.800,A,4051.258014,N,11907.080855,W,0.0,0.00,,,*2C
$GPGGA,090008.850,4051.258014,N,11907.080855,W,1,5,2.87,160.0,M,-21.321,M,,*67
$GPRMC,090008.850,A,4051.258014,N,11907.080855,W,0.0,0.00,,,*29
$GPGGA,090008.900,4051.258014,N,11907.080855,W,1,5,2.87,160.0,M,-21.321,M,,*63
$GPRMC,090008.900,A,4051.258014,N,11907.080855,W,0.0,0.00,,,*2D
$GPGGA,090008.950,4051.258014,N,11907.080855,W,1,5,2.87,160.0,M,-21.321,M,,*66
$GPRMC,090008.950,A,4051.258014,N,11907.080855,W,0.0,0.00,,,*28
$GPGGA,090009,4051.258014,N,11907.080855,W,1,5,2.87,160.0,M,-21.321,M,,*75
$GPRMC,090009,A,4051.258014,N,11907.080855,W,0.0,0.00,,,*3B
$GPGGA,090009.050,4051.258014,N,11907.080855,W,1,5,2.87,160.0,M,-21.321,M,,*6E
$GPRMC,090009.050,A,4051.258014,N,11907.080855,W,0.0,0.00,,,*20
$GPGGA,090009.100,4051.258014,N,11907.080855,W,1,5,2.87,160.0,M,-21.321,M,,*6A
$GPRMC,090009.100,A,4051.258014,N,11907.080855,W,0.0,0.00,,,*24
$GPGGA,090009.150,4051.258014,N,11907.080855,W,1,5,2.87,160.0,M,-21.321,M,,*6F
$GPRMC,090009.150,A,4051.258014,N,11907.080855,W,0.0,0.00,,,*21
$GPGGA,090009.200,4051.258014,N,11907.080855,W,1,5,2.87,160.0,M,-21.321,M,,*69
$GPRMC,090009.200,A,4051.258014,N,11907.080855,W,0.0,0.00,,,*27
$GPGGA,090009.250,4051.258014,N,11907.080855,W,1,5,2.87,160.0,M,-21.321,M,,*6C
$GPRMC,090009.250,A,4051.258014,N,11907.080855,W,0.0,0.00,,,*22
$GPGGA,090009.300,4051.258014,N,11907.080855,W,1,5,2.87,160.0,M,-21.321,M,,*68
$GPRMC,090009.300,A,4051.258014,N,11907.080855,W,0.0,0.00,,,*26
$GPGGA,090009.350,4051.258014,N,11907.080855,W,1,5,2.87,160.0,M,-21.321,M,,*6D
$GPRMC,090009.350,A,4051.258014,N,11907.080855,W,0.0,0.00,,,*23
$GPGGA,090009.400,4051.258014,N,11907.080855,W,1,5,2.87,160.0,M,-21.321,M,,*6F
$GPRMC,090009.400,A,4051.258014,N,11907.080855,W,0.0,0.00,,,*21
$GPGGA,090009.450,4051.258014,N,11907.080855,W,1,5,2.87,160.0,M,-21.321,M,,*6A
$GPRMC,090009.450,A,4051.258014,N,11907.080855,W,0.0,0.00,,,*24
$GPGGA,090009.500,4051.258014,N,11907.080855,W,1,5,2.87,160.0,M,-21.321,M,,*6E
$GPRMC,090009.500,A,4051.258014,N,11907.080855,W,0.0,0.00,,,*20
$GPGGA,090009.550,4051.258014,N,11907.080855,W,1,5,2.87,160.0,M,-21.321,M,,*6B
$GPRMC,090009.550,A,4051.258014,N,11907.080855,W,0.0,0.00,,,*25
$GPGGA,090009.600,4051.258014,N,11907.080855,W,1,5,2.87,160.0,M,-21.321,M,,*6D
$GPRMC,090009.600,A,4051.258014,N,11907.080855,W,0.0,0.00,,,*23
$GPGGA,090009.650,4051.258014,N,11907.080855,W,1,5,2.87,160.0,M,-21.321,M,,*68
$GPRMC,090009.650,A,4051.258014,N,11907.080855,W,0.0,0.00,,,*26
$GPGGA,090009.700,4051.258014,N,11907.080855,W,1,5,2.87,160.0,M,-21.321,M,,*6C
$GPRMC,090009.700,A,4051.258014,N,11907.080855,W,0.0,0.00,,,*22
$GPGGA,090009.750,4051.258014,N,11907.080855,W,1,5,2.87,160.0,M,-21.321,M,,*69
$GPRMC,090009.750,A,4051.258014,N,11907.080855,W,0.0,0.00,,,*27
$GPGGA,090009.800,4051.258014,N,11907.080855,W,1,5,2.87,160.0,M,-21.321,M,,*63
$GPRMC,090009.800,A,4051.258014,N,11907.080855,W,0.0,0.00,,,*2D
$GPGGA,090009.850,4051.258014,N,11907.080855,W,1,5,2.87,160.0,M,-21.321,M,,*66
$GPRMC,090009.850,A,4051.258014,N,11907.080855,W,0.0,0.00,,,*28
$GPGGA,090009.900,4051.258014,N,11907.080855,W,1,5,2.87,160.0,M,-21.321,M,,*62
$GPRMC,090009.900,A,4051.258014,N,11907.080855,W,0.0,0.00,,,*2C
$GPGGA,090009.950,4051.258014,N,11907.080855,W,1,5,2.87,160.0,M,-21.321,M,,*67
$GPRMC,090009.950,A,4051.258014,N,11907.080855,W,0.0,0.00,,,*29
$GPGGA,090010,4051.258014,N,11907.080855,W,1,5,2.87,160.0,M,-21.321,M,,*7D
$GPRMC,090010,A,4051.258014,N,11907.080855,W,0.0,0.00,,,*33
$GPGGA,090010.050,4051.258014,N,11907.080855,W,1,5,2.87,160.0,M,-21.321,M,,*66
$GPRMC,090010.050,A,4051.258014,N,11907.080855,W,0.0,0.00,,,*28
$GPGGA,090010.100,4051.258014,N,11907.080855,W,1,5,2.87,160.0,M,-21.321,M,,*62
$GPRMC,090010.100,A,4051.258014,N,11907.080855,W,0.0,0.00,,,*2C
$GPGGA,090010.150,4051.258014,N,11907.080855,W,1,5,2.87,160.0,M,-21.321,M,,*67
$GPRMC,090010.150,A,4051.258014,N,11907.080855,W,0.0,0.00,,,*29
$GPGGA,090010.200,4051.258014,N,11907.080855,W,1,5,2.87,160.0,M,-21.321,M,,*61
$GPRMC,090010.200,A,4051.258014,N,11907.080855,W,0.0,0.00,,,*2F
$GPGGA,090010.250,4051.258014,N,11907.080855,W,1,5,2.87,160.0,M,-21.321,M,,*64
$GPRMC,090010.250,A,4051.258014,N,11907.080855,W,0.0,0.00,,,*2A
$GPGGA,090010.300,4051.258014,N,11907.080855,W,1,5,2.87,160.0,M,-21.321,M,,*60
$GPRMC,090010.300,A,4051.258014,N,11907.080855,W,0.0,0.00,,,*2E
$GPGGA,090010.350,4051.258014,N,11907.080855,W,1,5,2.87,160.0,M,-21.321,M,,*65
$GPRMC,090010.350,A,4051.258014,N,11907.080855,W,0.0,0.00,,,*2B
$GPGGA,090010.400,4051.258014,N,11907.080855,W,1,5,2.87,160.0,M,-21.321,M,,*67
$GPRMC,090010.400,A,4051.258014,N,11907.080855,W,0.0,0.00,,,*29
$GPGGA,090010.450,4051.258014,N,11907.080855,W,1,5,2.87,160.0,M,-21.321,M,,*62
$GPRMC,090010.450,A,4051.258014,N,11907.080855,W,0.0,0.00,,,*2C
$GPGGA,090010.500,4051.258014,N,11907.080855,W,1,5,2.87,160.0,M,-21.321,M,,*66
$GPRMC,090010.500,A,4051.258014,N,11907.080855,W,0.0,0.00,,,*28
$GPGGA,090010.550,4051.258014,N,11907.080855,W,1,5,2.87,160.0,M,-21.321,M,,*63
$GPRMC,090010.550,A,4051.258014,N,11907.080855,W,0.0,0.00,,,*2D
$GPGGA,090010.600,4051.258014,N,11907.080855,W,1,5,2.87,160.0,M,-21.321,M,,*65
$GPRMC,090010.600,A,4051.258014,N,11907.080855,W,0.0,0.00,,,*2B
$GPGGA,090010.650,4051.258014,N,11907.080855,W,1,5,2.87,160.0,M,-21.321,M,,*60
$GPRMC,090010.650,A,4051.258014,N,11907.080855,W,0.0,0.00,,,*2E
$GPGGA,090010.700,4051.258014,N,11907.080855,W,1,5,2.87,160.0,M,-21.321,M,,*64
$GPRMC,090010.700,A,4051.258014,N,11907.080855,W,0.0,0.00,,,*2A
$GPGGA,090010.750,4051.258014,N,11907.080855,W,1,5,2.87,160.0,M,-21.321,M,,*61
$GPRMC,090010.750,A,4051.258014,N,11907.080855,W,0.0,0.00,,,*2F
$GPGGA,090010.800,4051.258014,N,11907.080855,W,1,5,2.87,160.0,M,-21.321,M,,*6B
$GPRMC,090010.800,A,4051.258014,N,11907.080855,W,0.0,0.00,,,*25
$GPGGA,090010.850,4051.258014,N,11907.080855,W,1,5,2.87,160.0,M,-21.321,M,,*6E
$GPRMC,090010.850,A,4051.258014,N,11907.080855,W,0.0,0.00,,,*20
$GPGGA,090010.900,4051.258014,N,11907.080855,W,1,5,2.87,160.0,M,-21.321,M,,*6A
$GPRMC,090010.900,A,4051.258014,N,11907.080855,W,0.0,0.00,,,*24
$GPGGA,090010.950,4051.258014,N,11907.080855,W,1,5,2.87,160.0,M,-21.321,M,,*6F
$GPRMC,090010.950,A,4051.258014,N,11907.080855,W,0.0,0.00,,,*21
$GPGGA,090011,4051.258014,N,11907.080855,W,1,5,2.87,160.0,M,-21.321,M,,*7C
$GPRMC,090011,A,4051.258014,N,11907.080855,W,0.0,0.00,,,*32
$GPGGA,090011.050,4051.258014,N,11907.080855,W,1,5,2.87,160.0,M,-21.321,M,,*67
$GPRMC,090011.050,A,4051.258014,N,11907.080855,W,0.0,0.00,,,*29
$GPGGA,090011.100,4051.258014,N,11907.080855,W,1,5,2.87,160.0,M,-21.321,M,,*63
$GPRMC,090011.100,A,4051.258014,N,11907.080855,W,0.0,0.00,,,*2D
$GPGGA,090011.150,4051.258014,N,11907.080855,W,1,5,2.87,160.0,M,-21.321,M,,*66
$GPRMC,090011.150,A,4051.258014,N,11907.080855,W,0.0,0.00,,,*28
$GPGGA,090011.200,4051.258014,N,11907.080855,W,1,5,2.87,160.0,M,-21.321,M,,*60
$GPRMC,090011.200,A,4051.258014,N,11907.080855,W,0.0,0.00,,,*2E
$GPGGA,090011.250,4051.258014,N,11907.080855,W,1,5,2.87,160.0,M,-21.321,M,,*65
$GPRMC,090011.250,A,4051.258014,N,11907.080855,W,0.0,0.00,,,*2B
$GPGGA,090011.300,4051.258014,N,11907.080855,W,1,5,2.87,160.0,M,-21.321,M,,*61
$GPRMC,090011.300,A,4051.258014,N,11907.080855,W,0.0,0.00,,,*2F
$GPGGA,090011.350,4051.258014,N,11907.080855,W,1,5,2.87,160.0,M,-21.321,M,,*64
$GPRMC,090011.350,A,4051.258014,N,11907.080855,W,0.0,0.00,,,*2A
$GPGGA,090011.400,4051.258014,N,11907.080855,W,1,5,2.87,160.0,M,-21.321,M,,*66
$GPRMC,090011.400,A,4051.258014,N,11907.080855,W,0.0,0.00,,,*28
$GPGGA,090011.450,4051.258014,N,11907.080855,W,1,5,2.87,160.0,M,-21.321,M,,*63
$GPRMC,090011.450,A,4051.258014,N,11907.080855,W,0.0,0.00,,,*2D
$GPGGA,090011.500,4051.258014,N,11907.080855,W,1,5,2.87,160.0,M,-21.321,M,,*67
$GPRMC,090011.500,A,4051.258014,N,11907.080855,W,0.0,0.00,,,*29
$GPGGA,090011.550,4051.258014,N,11907.080855,W,1,5,2.87,160.0,M,-21.321,M,,*62
$GPRMC,090011.550,A,4051.258014,N,11907.080855,W,0.0,0.00,,,*2C
$GPGGA,090011.600,4051.258014,N,11907.080855,W,1,5,2.87,160.0,M,-21.321,M,,*64
$GPRMC,090011.600,A,4051.258014,N,11907.080855,W,0.0,0.00,,,*2A
$GPGGA,090011.650,4051.258014,N,11907.080855,W,1,5,2.87,160.0,M,-21.321,M,,*61
$GPRMC,090011.650,A,4051.258014,N,11907.080855,W,0.0,0.00,,,*2F
$GPGGA,090011.700,4051.258014,N,11907.080855,W,1,5,2.87,160.0,M,-21.321,M,,*65
$GPRMC,090011.700,A,4051.258014,N,11907.080855,W,0.0,0.00,,,*2B
$GPGGA,090011.750,4051.258014,N,11907.080855,W,1,5,2.87,160.0,M,-21.321,M,,*60
$GPRMC,090011.750,A,4051.258014,N,11907.080855,W,0.0,0.00,,,*2E
$GPGGA,090011.800,4051.258014,N,11907.080855,W,1,5,2.87,160.0,M,-21.321,M,,*6A
$GPRMC,090011.800,A,4051.258014,N,11907.080855,W,0.0,0.00,,,*24
$GPGGA,090011.850,4051.258014,N,11907.080855,W,1,5,2.87,160.0,M,-21.321,M,,*6F
$GPRMC,090011.850,A,4051.258014,N,11907.080855,W,0.0,0.00,,,*21
$GPGGA,090011.900,4051.258014,N,11907.080855,W,1,5,2.87,160.0,M,-21.321,M,,*6B
$GPRMC,090011.900,A,4051.258014,N,11907.080855,W,0.0,0.00,,,*25
$GPGGA,090011.950,4051.258014,N,11907.080855,W,1,5,2.87,160.0,M,-21.321,M,,*6E
$GPRMC,090011.950,A,4051.258014,N,11907.080855,W,0.0,0.00,,,*20
$GPGGA,090012,4051.258014,N,11907.080855,W,1,5,2.87,160.0,M,-21.321,M,,*7F
$GPRMC,090012,A,4051.258014,N,11907.080855,W,0.0,0.00,,,*31
$GPGGA,090012.050,4051.258014,N,11907.080855,W,1,5,2.87,160.0,M,-21.321,M,,*64
$GPRMC,090012.050,A,4051.258014,N,11907.080855,W,0.0,0.00,,,*2A
$GPGGA,090012.100,4051.258014,N,11907.080855,W,1,5,2.87,160.0,M,-21.321,M,,*60
$GPRMC,090012.100,A,4051.258014,N,11907.080855,W,0.0,0.00,,,*2E
$GPGGA,090012.150,4051.258014,N,11907.080855,W,1,5,2.87,160.0,M,-21.321,M,,*65
$GPRMC,090012.150,A,4051.258014,N,11907.080855,W,0.0,0.00,,,*2B
$GPGGA,090012.200,4051.258014,N,11907.080855,W,1,5,2.87,160.0,M,-21.321,M,,*63
$GPRMC,090012.200,A,4051.258014,N,11907.080855,W,0.0,0.00,,,*2D
$GPGGA,090012.250,4051.258014,N,11907.080855,W,1,5,2.87,160.0,M,-21.321,M,,*66
$GPRMC,090012.250,A,4051.258014,N,11907.080855,W,0.0,0.00,,,*28
$GPGGA,090012.300,4051.258014,N,11907.080855,W,1,5,2.87,160.0,M,-21.321,M,,*62
$GPRMC,090012.300,A,4051.258014,N,11907.080855,W,0.0,0.00,,,*2C
$GPGGA,090012.350,4051.258014,N,11907.080855,W,1,5,2.87,160.0,M,-21.321,M,,*67
$GPRMC,090012.350,A,4051.258014,N,11907.080855,W,0.0,0.00,,,*29
$GPGGA,090012.400,4051.258014,N,11907.080855,W,1,5,2.87,160.0,M,-21.321,M,,*65
$GPRMC,090012.400,A,4051.258014,N,11907.080855,W,0.0,0.00,,,*2B
$GPGGA,090012.450,4051.258014,N,11907.080855,W,1,5,2.87,160.0,M,-21.321,M,,*60
$GPRMC,090012.450,A,4051.258014,N,11907.080855,W,0.0,0.00,,,*2E
$GPGGA,090012.500,4051.258014,N,11907.080855,W,1,5,2.87,160.0,M,-21.321,M,,*64
$GPRMC,090012.500,A,4051.258014,N,11907.080855,W,0.0,0.00,,,*2A
$GPGGA,090012.550,4051.258014,N,11907.080855,W,1,5,2.87,160.0,M,-21.321,M,,*61
$GPRMC,090012.550,A,4051.258014,N,11907.080855,W,0.0,0.00,,,*2F
$GPGGA,090012.600,4051.258014,N,11907.080855,W,1,5,2.87,160.0,M,-21.321,M,,*67
$GPRMC,090012.600,A,4051.258014,N,11907.080855,W,0.0,0.00,,,*29
$GPGGA,090012.650,4051.258014,N,11907.080855,W,1,5,2.87,160.0,M,-21.321,M,,*62
$GPRMC,090012.650,A,4051.258014,N,11907.080855,W,0.0,0.00,,,*2C
$GPGGA,090012.700,4051.258014,N,11907.080855,W,1,5,2.87,160.0,M,-21.321,M,,*66
$GPRMC,090012.700,A,4051.258014,N,11907.080855,W,0.0,0.00,,,*28
$GPGGA,090012.750,4051.258014,N,11907.080855,W,1,5,2.87,160.0,M,-21.321,M,,*63
$GPRMC,090012.750,A,4051.258014,N,11907.080855,W,0.0,0.00,,,*2D
$GPGGA,090012.800,4051.258014,N,11907.080855,W,1,5,2.87,160.0,M,-21.321,M,,*69
$GPRMC,090012.800,A,4051.258014,N,11907.080855,W,0.0,0.00,,,*27
$GPGGA,090012.850,4051.258014,N,11907.080855,W,1,5,2.87,160.0,M,-21.321,M,,*6C
$GPRMC,090012.850,A,4051.258014,N,11907.080855,W,0.0,0.00,,,*22
$GPGGA,090012.900,4051.258014,N,11907.080855,W,1,5,2.87,160.0,M,-21.321,M,,*68
$GPRMC,090012.900,A,4051.258014,N,11907.080855,W,0.0,0.00,,,*26
$GPGGA,090012.950,4051.258014,N,11907.080855,W,1,5,2.87,160.0,M,-21.321,M,,*6D
$GPRMC,090012.950,A,4051.258014,N,11907.080855,W,0.0,0.00,,,*23
$GPGGA,090013,4051.258014,N,11907.080855,W,1,5,2.87,160.0,M,-21.321,M,,*7E
$GPRMC,090013,A,4051.258014,N,11907.080855,W,0.0,0.00,,,*30
$GPGGA,090013.050,4051.258014,N,11907.080855,W,1,5,2.87,160.0,M,-21.321,M,,*65
$GPRMC,090013.050,A,4051.258014,N,11907.080855,W,0.0,0.00,,,*2B
$GPGGA,090013.100,4051.258014,N,11907.080855,W,1,5,2.87,160.0,M,-21.321,M,,*61
$GPRMC,090013.100,A,4051.258014,N,11907.080855,W,0.0,0.00,,,*2F
$GPGGA,090013.150,4051.258014,N,11907.080855,W,1,5,2.87,160.0,M,-21.321,M,,*64
$GPRMC,090013.150,A,4051.258014,N,11907.080855,W,0.0,0.00,,,*2A
$GPGGA,090013.200,4051.258014,N,11907.080855,W,1,5,2.87,160.0,M,-21.321,M,,*62
$GPRMC,090013.200,A,4051.258014,N,11907.080855,W,0.0,0.00,,,*2C
$GPGGA,090013.250,4051.258014,N,11907.080855,W,1,5,2.87,160.0,M,-21.321,M,,*67
$GPRMC,090013.250,A,4051.258014,N,11907.080855,W,0.0,0.00,,,*29
$GPGGA,090013.300,4051.258014,N,11907.080855,W,1,5,2.87,160.0,M,-21.321,M,,*63
$GPRMC,090013.300,A,4051.258014,N,11907.080855,W,0.0,0.00,,,*2D
$GPGGA,090013.350,4051.258014,N,11907.080855,W,1,5,2.87,160.0,M,-21.321,M,,*66
$GPRMC,090013.350,A,4051.258014,N,11907.080855,W,0.0,0.00,,,*28
$GPGGA,090013.400,4051.258014,N,11907.080855,W,1,5,2.87,160.0,M,-21.321,M,,*64
$GPRMC,090013.400,A,4051.258014,N,11907.080855,W,0.0,0.00,,,*2A
$GPGGA,090013.450,4051.258014,N,11907.080855,W,1,5,2.87,160.0,M,-21.321,M,,*61
$GPRMC,090013.450,A,4051.258014,N,11907.080855,W,0.0,0.00,,,*2F
$GPGGA,090013.500,4051.258014,N,11907.080855,W,1,5,2.87,160.0,M,-21.321,M,,*65
$GPRMC,090013.500,A,4051.258014,N,11907.080855,W,0.0,0.00,,,*2B
$GPGGA,090013.550,4051.258014,N,11907.080855,W,1,5,2.87,160.0,M,-21.321,M,,*60
$GPRMC,090013.550,A,4051.258014,N,11907.080855,W,0.0,0.00,,,*2E
$GPGGA,090013.600,4051.258014,N,11907.080855,W,1,5,2.87,160.0,M,-21.321,M,,*66
$GPRMC,090013.600,A,4051.258014,N,11907.080855,W,0.0,0.00,,,*28
$GPGGA,090013.650,4051.258014,N,11907.080855,W,1,5,2.87,160.0,M,-21.321,M,,*63
$GPRMC,090013.650,A,4051.258014,N,11907.080855,W,0.0,0.00,,,*2D
$GPGGA,090013.700,4051.258014,N,11907.080855,W,1,5,2.87,160.0,M,-21.321,M,,*67
$GPRMC,090013.700,A,4051.258014,N,11907.080855,W,0.0,0.00,,,*29
$GPGGA,090013.750,4051.258014,N,11907.080855,W,1,5,2.87,160.0,M,-21.321,M,,*62
$GPRMC,090013.750,A,4051.258014,N,11907.080855,W,0.0,0.00,,,*2C
$GPGGA,090013.800,4051.258014,N,11907.080855,W,1,5,2.87,160.0,M,-21.321,M,,*68
$GPRMC,090013.800,A,4051.258014,N,11907.080855,W,0.0,0.00,,,*26
$GPGGA,090013.850,4051.258014,N,11907.080855,W,1,5,2.87,160.0,M,-21.321,M,,*6D
$GPRMC,090013.850,A,4051.258014,N,11907.080855,W,0.0,0.00,,,*23
$GPGGA,090013.900,4051.258014,N,11907.080855,W,1,5,2.87,160.0,M,-21.321,M,,*69
$GPRMC,090013.900,A,4051.258014,N,11907.080855,W,0.0,0.00,,,*27
$GPGGA,090013.950,4051.258014,N,11907.080855,W,1,5,2.87,160.0,M,-21.321,M,,*6C
$GPRMC,090013.950,A,4051.258014,N,11907.080855,W,0.0,0.00,,,*22
$GPGGA,090014,4051.258014,N,11907.080855,W,1,5,2.87,160.0,M,-21.321,M,,*79
$GPRMC,090014,A,4051.258014,N,11907.080855,W,0.0,0.00,,,*37
$GPGGA,090014.050,4051.258014,N,11907.080855,W,1,5,2.87,160.0,M,-21.321,M,,*62
$GPRMC,090014.050,A,4051.258014,N,11907.080855,W,0.0,0.00,,,*2C
$GPGGA,090014.100,4051.258014,N,11907.080855,W,1,5,2.87,160.0,M,-21.321,M,,*66
$GPRMC,090014.100,A,4051.258014,N,11907.080855,W,0.0,0.00,,,*28
$GPGGA,090014.150,4051.258014,N,11907.080855,W,1,5,2.87,160.0,M,-21.321,M,,*63
$GPRMC,090014.150,A,4051.258014,N,11907.080855,W,0.0,0.00,,,*2D
$GPGGA,090014.200,4051.258014,N,11907.080855,W,1,5,2.87,160.0,M,-21.321,M,,*65
$GPRMC,090014.200,A,4051.258014,N,11907.080855,W,0.0,0.00,,,*2B
$GPGGA,090014.250,4051.258014,N,11907.080855,W,1,5,2.87,160.0,M,-21.321,M,,*60
$GPRMC,090014.250,A,4051.258014,N,11907.080855,W,0.0,0.00,,,*2E
$GPGGA,090014.300,4051.258014,N,11907.080855,W,1,5,2.87,160.0,M,-21.321,M,,*64
$GPRMC,090014.300,A,4051.258014,N,11907.080855,W,0.0,0.00,,,*2A
$GPGGA,090014.350,4051.258014,N,11907.080855,W,1,5,2.87,160.0,M,-21.321,M,,*61
$GPRMC,090014.350,A,4051.258014,N,11907.080855,W,0.0,0.00,,,*2F
$GPGGA,090014.400,4051.258014,N,11907.080855,W,1,5,2.87,160.0,M,-21.321,M,,*63
$GPRMC,090014.400,A,4051.258014,N,11907.080855,W,0.0,0.00,,,*2D
$GPGGA,090014.450,4051.258014,N,11907.080855,W,1,5,2.87,160.0,M,-21.321,M,,*66
$GPRMC,090014.450,A,4051.258014,N,11907.080855,W,0.0,0.00,,,*28
$GPGGA,090014.500,4051.258014,N,11907.080855,W,1,5,2.87,160.0,M,-21.321,M,,*62
$GPRMC,090014.500,A,4051.258014,N,11907.080855,W,0.0,0.00,,,*2C
$GPGGA,090014.550,4051.258014,N,11907.080855,W,1,5,2.87,160.0,M,-21.321,M,,*67
$GPRMC,090014.550,A,4051.258014,N,11907.080855,W,0.0,0.00,,,*29
$GPGGA,090014.600,4051.258014,N,11907.080855,W,1,5,2.87,160.0,M,-21.321,M,,*61
$GPRMC,090014.600,A,4051.258014,N,11907.080855,W,0.0,0.00,,,*2F
$GPGGA,090014.650,4051.258014,N,11907.080855,W,1,5,2.87,160.0,M,-21.321,M,,*64
$GPRMC,090014.650,A,4051.258014,N,11907.080855,W,0.0,0.00,,,*2A
$GPGGA,090014.700,4051.258014,N,11907.080855,W,1,5,2.87,160.0,M,-21.321,M,,*60
$GPRMC,090014.700,A,4051.258014,N,11907.080855,W,0.0,0.00,,,*2E
$GPGGA,090014.750,4051.258014,N,11907.080855,W,1,5,2.87,160.0,M,-21.321,M,,*65
$GPRMC,090014.750,A,4051.258014,N,11907.080855,W,0.0,0.00,,,*2B
$GPGGA,090014.800,4051.258014,N,11907.080855,W,1,5,2.87,160.0,M,-21.321,M,,*6F
$GPRMC,090014.800,A,4051.258014,N,11907.080855,W,0.0,0.00,,,*21
$GPGGA,090014.850,4051.258014,N,11907.080855,W,1,5,2.87,160.0,M,-21.321,M,,*6A
$GPRMC,090014.850,A,4051.258014,N,11907.080855,W,0.0,0.00,,,*24
$GPGGA,090014.900,4051.258014,N,11907.080855,W,1,5,2.87,160.0,M,-21.321,M,,*6E
$GPRMC,090014.900,A,4051.258014,N,11907.080855,W,0.0,0.00,,,*20
$GPGGA,090014.950,4051.258014,N,11907.080855,W,1,5,2.87,160.0,M,-21.321,M,,*6B
$GPRMC,090014.950,A,4051.258014,N,11907.080855,W,0.0,0.00,,,*25
$GPGGA,090015,4051.258014,N,11907.080855,W,1,5,2.87,160.0,M,-21.321,M,,*78
$GPRMC,090015,A,4051.258014,N,11907.080855,W,0.0,0.00,,,*36
$GPGGA,090015.050,4051.258014,N,11907.080855,W,1,5,2.87,160.0,M,-21.321,M,,*63
$GPRMC,090015.050,A,4051.258014,N,11907.080855,W,0.0,0.00,,,*2D
$GPGGA,090015.100,4051.258014,N,11907.080855,W,1,5,2.87,160.0,M,-21.321,M,,*67
$GPRMC,090015.100,A,4051.258014,N,11907.080855,W,0.0,0.00,,,*29
$GPGGA,090015.150,4051.258014,N,11907.080855,W,1,5,2.87,160.0,M,-21.321,M,,*62
$GPRMC,090015.150,A,4051.258014,N,11907.080855,W,0.0,0.00,,,*2C
$GPGGA,090015.200,4051.258014,N,11907.080855,W,1,5,2.87,160.0,M,-21.321,M,,*64
$GPRMC,090015.200,A,4051.258014,N,11907.080855,W,0.0,0.00,,,*2A
$GPGGA,090015.250,4051.258014,N,11907.080855,W,1,5,2.87,160.0,M,-21.321,M,,*61
$GPRMC,090015.250,A,4051.258014,N,11907.080855,W,0.0,0.00,,,*2F
$GPGGA,090015.300,4051.258014,N,11907.080855,W,1,5,2.87,160.0,M,-21.321,M,,*65
$GPRMC,090015.300,A,4051.258014,N,11907.080855,W,0.0,0.00,,,*2B
$GPGGA,090015.350,4051.258014,N,11907.080855,W,1,5,2.87,160.0,M,-21.321,M,,*60
$GPRMC,090015.350,A,4051.258014,N,11907.080855,W,0.0,0.00,,,*2E
$GPGGA,090015.400,4051.258014,N,11907.080855,W,1,5,2.87,160.0,M,-21.321,M,,*62
$GPRMC,090015.400,A,4051.258014,N,11907.080855,W,0.0,0.00,,,*2C
$GPGGA,090015.450,4051.258014,N,11907.080855,W,1,5,2.87,160.0,M,-21.321,M,,*67
$GPRMC,090015.450,A,4051.258014,N,11907.080855,W,0.0,0.00,,,*29
$GPGGA,090015.500,4051.258014,N,11907.080855,W,1,5,2.87,160.0,M,-21.321,M,,*63
$GPRMC,090015.500,A,4051.258014,N,11907.080855,W,0.0,0.00,,,*2D
$GPGGA,090015.550,4051.258014,N,11907.080855,W,1,5,2.87,160.0,M,-21.321,M,,*66
$GPRMC,090015.550,A,4051.258014,N,11907.080855,W,0.0,0.00,,,*28
$GPGGA,090015.600,4051.258014,N,11907.080855,W,1,5,2.87,160.0,M,-21.321,M,,*60
$GPRMC,090015.600,A,4051.258014,N,11907.080855,W,0.0,0.00,,,*2E
$GPGGA,090015.650,4051.258014,N,11907.080855,W,1,5,2.87,160.0,M,-21.321,M,,*65
$GPRMC,090015.650,A,4051.258014,N,11907.080855,W,0.0,0.00,,,*2B
$GPGGA,090015.700,4051.258014,N,11907.080855,W,1,5,2.87,160.0,M,-21.321,M,,*61
$GPRMC,090015.700,A,4051.258014,N,11907.080855,W,0.0,0.00,,,*2F
$GPGGA,090015.750,4051.258014,N,11907.080855,W,1,5,2.87,160.0,M,-21.321,M,,*64
$GPRMC,090015.750,A,4051.258014,N,11907.080855,W,0.0,0.00,,,*2A
$GPGGA,090015.800,4051.258014,N,11907.080855,W,1,5,2.87,160.0,M,-21.321,M,,*6E
$GPRMC,090015.800,A,4051.258014,N,11907.080855,W,0.0,0.00,,,*20
$GPGGA,090015.850,4051.258014,N,11907.080855,W,1,5,2.87,160.0,M,-21.321,M,,*6B
$GPRMC,090015.850,A,4051.258014,N,11907.080855,W,0.0,0.00,,,*25
$GPGGA,090015.900,4051.258014,N,11907.080855,W,1,5,2.87,160.0,M,-21.321,M,,*6F
$GPRMC,090015.900,A,4051.258014,N,11907.080855,W,0.0,0.00,,,*21
$GPGGA,090015.950,4051.258014,N,11907.080855,W,1,5,2.87,160.0,M,-21.321,M,,*6A
$GPRMC,090015.950,A,4051.258014,N,11907.080855,W,0.0,0.00,,,*24
$GPGGA,090016,4051.258014,N,11907.080855,W,1,5,2.87,160.0,M,-21.321,M,,*7B
$GPRMC,090016,A,4051.258014,N,11907.080855,W,0.0,0.00,,,*35
$GPGGA,090016.050,4051.258014,N,11907.080855,W,1,5,2.87,160.0,M,-21.321,M,,*60
$GPRMC,090016.050,A,4051.258014,N,11907.080855,W,0.0,0.00,,,*2E
$GPGGA,090016.100,4051.258014,N,11907.080855,W,1,5,2.87,160.0,M,-21.321,M,,*64
$GPRMC,090016.100,A,4051.258014,N,11907.080855,W,0.0,0.00,,,*2A
$GPGGA,090016.150,4051.258014,N,11907.080855,W,1,5,2.87,160.0,M,-21.321,M,,*61
$GPRMC,090016.150,A,4051.258014,N,11907.080855,W,0.0,0.00,,,*2F
$GPGGA,090016.200,4051.258014,N,11907.080855,W,1,5,2.87,160.0,M,-21.321,M,,*67
$GPRMC,090016.200,A,4051.258014,N,11907.080855,W,0.0,0.00,,,*29
$GPGGA,090016.250,4051.258014,N,11907.080855,W,1,5,2.87,160.0,M,-21.321,M,,*62
$GPRMC,090016.250,A,4051.258014,N,11907.080855,W,0.0,0.00,,,*2C
$GPGGA,090016.300,4051.258014,N,11907.080855,W,1,5,2.87,160.0,M,-21.321,M,,*66
$GPRMC,090016.300,A,4051.258014,N,11907.080855,W,0.0,0.00,,,*28
$GPGGA,090016.350,4051.258014,N,11907.080855,W,1,5,2.87,160.0,M,-21.321,M,,*63
$GPRMC,090016.350,A,4051.258014,N,11907.080855,W,0.0,0.00,,,*2D
$GPGGA,090016.400,4051.258014,N,11907.080855,W,1,5,2.87,160.0,M,-21.321,M,,*61
$GPRMC,090016.400,A,4051.258014,N,11907.080855,W,0.0,0.00,,,*2F
$GPGGA,090016.450,4051.258014,N,11907.080855,W,1,5,2.87,160.0,M,-21.321,M,,*64
$GPRMC,090016.450,A,4051.258014,N,11907.080855,W,0.0,0.00,,,*2A
$GPGGA,090016.500,4051.258014,N,11907.080855,W,1,5,2.87,160.0,M,-21.321,M,,*60
$GPRMC,090016.500,A,4051.258014,N,11907.080855,W,0.0,0.00,,,*2E
$GPGGA,090016.550,4051.258014,N,11907.080855,W,1,5,2.87,160.0,M,-21.321,M,,*65
$GPRMC,090016.550,A,4051.258014,N,11907.080855,W,0.0,0.00,,,*2B
$GPGGA,090016.600,4051.258014,N,11907.080855,W,1,5,2.87,160.0,M,-21.321,M,,*63
$GPRMC,090016.600,A,4051.258014,N,11907.080855,W,0.0,0.00,,,*2D
$GPGGA,090016.650,4051.258014,N,11907.080855,W,1,5,2.87,160.0,M,-21.321,M,,*66
$GPRMC,090016.650,A,4051.258014,N,11907.080855,W,0.0,0.00,,,*28
$GPGGA,090016.700,4051.258014,N,11907.080855,W,1,5,2.87,160.0,M,-21.321,M,,*62
$GPRMC,090016.700,A,4051.258014,N,11907.080855,W,0.0,0.00,,,*2C
$GPGGA,090016.750,4051.258014,N,11907.080855,W,1,5,2.87,160.0,M,-21.321,M,,*67
$GPRMC,090016.750,A,4051.258014,N,11907.080855,W,0.0,0.00,,,*29
$GPGGA,090016.800,4051.258014,N,11907.080855,W,1,5,2.87,160.0,M,-21.321,M,,*6D
$GPRMC,090016.800,A,4051.258014,N,11907.080855,W,0.0,0.00,,,*23
$GPGGA,090016.850,4051.258014,N,11907.080855,W,1,5,2.87,160.0,M,-21.321,M,,*68
$GPRMC,090016.850,A,4051.258014,N,11907.080855,W,0.0,0.00,,,*26
$GPGGA,090016.900,4051.258014,N,11907.080855,W,1,5,2.87,160.0,M,-21.321,M,,*6C
$GPRMC,090016.900,A,4051.258014,N,11907.080855,W,0.0,0.00,,,*22
$GPGGA,090016.950,4051.258014,N,11907.080855,W,1,5,2.87,160.0,M,-21.321,M,,*69
$GPRMC,090016.950,A,4051.258014,N,11907.080855,W,0.0,0.00,,,*27
$GPGGA,090017,4051.258014,N,11907.080855,W,1,5,2.87,160.0,M,-21.321,M,,*7A
$GPRMC,090017,A,4051.258014,N,11907.080855,W,0.0,0.00,,,*34
$GPGGA,090017.050,4051.258014,N,11907.080855,W,1,5,2.87,160.0,M,-21.321,M,,*61
$GPRMC,090017.050,A,4051.258014,N,11907.080855,W,0.0,0.00,,,*2F
$GPGGA,090017.100,4051.258014,N,11907.080855,W,1,5,2.87,160.0,M,-21.321,M,,*65
$GPRMC,090017.100,A,4051.258014,N,11907.080855,W,0.0,0.00,,,*2B
$GPGGA,090017.150,4051.258014,N,11907.080855,W,1,5,2.87,160.0,M,-21.321,M,,*60
$GPRMC,090017.150,A,4051.258014,N,11907.080855,W,0.0,0.00,,,*2E
$GPGGA,090017.200,4051.258014,N,11907.080855,W,1,5,2.87,160.0,M,-21.321,M,,*66
$GPRMC,090017.200,A,4051.258014,N,11907.080855,W,0.0,0.00,,,*28
$GPGGA,090017.250,4051.258014,N,11907.080855,W,1,5,2.87,160.0,M,-21.321,M,,*63
$GPRMC,090017.250,A,4051.258014,N,11907.080855,W,0.0,0.00,,,*2D
$GPGGA,090017.300,4051.258014,N,11907.080855,W,1,5,2.87,160.0,M,-21.321,M,,*67
$GPRMC,090017.300,A,4051.258014,N,11907.080855,W,0.0,0.00,,,*29
$GPGGA,090017.350,4051.258014,N,11907.080855,W,1,5,2.87,160.0,M,-21.321,M,,*62
$GPRMC,090017.350,A,4051.258014,N,11907.080855,W,0.0,0.00,,,*2C
$GPGGA,090017.400,4051.258014,N,11907.080855,W,1,5,2.87,160.0,M,-21.321,M,,*60
$GPRMC,090017.400,A,4051.258014,N,11907.080855,W,0.0,0.00,,,*2E
$GPGGA,090017.450,4051.258014,N,11907.080855,W,1,5,2.87,160.0,M,-21.321,M,,*65
$GPRMC,090017.450,A,4051.258014,N,11907.080855,W,0.0,0.00,,,*2B
$GPGGA,090017.500,4051.258014,N,11907.080855,W,1,5,2.87,160.0,M,-21.321,M,,*61
$GPRMC,090017.500,A,4051.258014,N,11907.080855,W,0.0,0.00,,,*2F
$GPGGA,090017.550,4051.258014,N,11907.080855,W,1,5,2.87,160.0,M,-21.321,M,,*64
$GPRMC,090017.550,A,4051.258014,N,11907.080855,W,0.0,0.00,,,*2A
$GPGGA,090017.600,4051.258014,N,11907.080855,W,1,5,2.87,160.0,M,-21.321,M,,*62
$GPRMC,090017.600,A,4051.258014,N,11907.080855,W,0.0,0.00,,,*2C
$GPGGA,090017.650,4051.258014,N,11907.080855,W,1,5,2.87,160.0,M,-21.321,M,,*67
$GPRMC,090017.650,A,4051.258014,N,11907.080855,W,0.0,0.00,,,*29
$GPGGA,090017.700,4051.258014,N,11907.080855,W,1,5,2.87,160.0,M,-21.321,M,,*63
$GPRMC,090017.700,A,4051.258014,N,11907.080855,W,0.0,0.00,,,*2D
$GPGGA,090017.750,4051.258014,N,11907.080855,W,1,5,2.87,160.0,M,-21.321,M,,*66
$GPRMC,090017.750,A,4051.258014,N,11907.080855,W,0.0,0.00,,,*28
$GPGGA,090017.800,4051.258014,N,11907.080855,W,1,5,2.87,160.0,M,-21.321,M,,*6C
$GPRMC,090017.800,A,4051.258014,N,11907.080855,W,0.0,0.00,,,*22
$GPGGA,090017.850,4051.258014,N,11907.080855,W,1,5,2.87,160.0,M,-21.321,M,,*69
$GPRMC,090017.850,A,4051.258014,N,11907.080855,W,0.0,0.00,,,*27
$GPGGA,090017.900,4051.258014,N,11907.080855,W,1,5,2.87,160.0,M,-21.321,M,,*6D
$GPRMC,090017.900,A,4051.258014,N,11907.080855,W,0.0,0.00,,,*23
$GPGGA,090017.950,4051.258014,N,11907.080855,W,1,5,2.87,160.0,M,-21.321,M,,*68
$GPRMC,090017.950,A,4051.258014,N,11907.080855,W,0.0,0.00,,,*26
$GPGGA,090018,4051.258014,N,11907.080855,W,1,5,2.87,160.0,M,-21.321,M,,*75
$GPRMC,090018,A,4051.258014,N,11907.080855,W,0.0,0.00,,,*3B
$GPGGA,090018.050,4051.258014,N,11907.080855,W,1,5,2.87,160.0,M,-21.321,M,,*6E
$GPRMC,090018.050,A,4051.258014,N,11907.080855,W,0.0,0.00,,,*20
$GPGGA,090018.100,4051.258014,N,11907.080855,W,1,5,2.87,160.0,M,-21.321,M,,*6A
$GPRMC,090018.100,A,4051.258014,N,11907.080855,W,0.0,0.00,,,*24
$GPGGA,090018.150,4051.258014,N,11907.080855,W,1,5,2.87,160.0,M,-21.321,M,,*6F
$GPRMC,090018.150,A,4051.258014,N,11907.080855,W,0.0,0.00,,,*21
$GPGGA,090018.200,4051.258014,N,11907.080855,W,1,5,2.87,160.0,M,-21.321,M,,*69
$GPRMC,090018.200,A,4051.258014,N,11907.080855,W,0.0,0.00,,,*27
$GPGGA,090018.250,4051.258014,N,11907.080855,W,1,5,2.87,160.0,M,-21.321,M,,*6C
$GPRMC,090018.250,A,4051.258014,N,11907.080855,W,0.0,0.00,,,*22
$GPGGA,090018.300,4051.258014,N,11907.080855,W,1,5,2.87,160.0,M,-21.321,M,,*68
$GPRMC,090018.300,A,4051.258014,N,11907.080855,W,0.0,0.00,,,*26
$GPGGA,090018.350,4051.258014,N,11907.080855,W,1,5,2.87,160.0,M,-21.321,M,,*6D
$GPRMC,090018.350,A,4051.258014,N,11907.080855,W,0.0,0.00,,,*23
$GPGGA,090018.400,4051.258014,N,11907.080855,W,1,5,2.87,160.0,M,-21.321,M,,*6F
$GPRMC,090018.400,A,4051.258014,N,11907.080855,W,0.0,0.00,,,*21
$GPGGA,090018.450,4051.258014,N,11907.080855,W,1,5,2.87,160.0,M,-21.321,M,,*6A
$GPRMC,090018.450,A,4051.258014,N,11907.080855,W,0.0,0.00,,,*24
$GPGGA,090018.500,4051.258014,N,11907.080855,W,1,5,2.87,160.0,M,-21.321,M,,*6E
$GPRMC,090018.500,A,4051.258014,N,11907.080855,W,0.0,0.00,,,*20
$GPGGA,090018.550,4051.258014,N,11907.080855,W,1,5,2.87,160.0,M,-21.321,M,,*6B
$GPRMC,090018.550,A,4051.258014,N,11907.080855,W,0.0,0.00,,,*25
$GPGGA,090018.600,4051.258014,N,11907.080855,W,1,5,2.87,160.0,M,-21.321,M,,*6D
$GPRMC,090018.600,A,4051.258014,N,11907.080855,W,0.0,0.00,,,*23
$GPGGA,090018.650,4051.258014,N,11907.080855,W,1,5,2.87,160.0,M,-21.321,M,,*68
$GPRMC,090018.650,A,4051.258014,N,11907.080855,W,0.0,0.00,,,*26
$GPGGA,090018.700,4051.258014,N,11907.080855,W,1,5,2.87,160.0,M,-21.321,M,,*6C
$GPRMC,090018.700,A,4051.258014,N,11907.080855,W,0.0,0.00,,,*22
$GPGGA,090018.750,4051.258014,N,11907.080855,W,1,5,2.87,160.0,M,-21.321,M,,*69
$GPRMC,090018.750,A,4051.258014,N,11907.080855,W,0.0,0.00,,,*27
$GPGGA,090018.800,4051.258014,N,11907.080855,W,1,5,2.87,160.0,M,-21.321,M,,*63
$GPRMC,090018.800,A,4051.258014,N,11907.080855,W,0.0,0.00,,,*2D
$GPGGA,090018.850,4051.258014,N,11907.080855,W,1,5,2.87,160.0,M,-21.321,M,,*66
$GPRMC,090018.850,A,4051.258014,N,11907.080855,W,0.0,0.00,,,*28
$GPGGA,090018.900,4051.258014,N,11907.080855,W,1,5,2.87,160.0,M,-21.321,M,,*62
$GPRMC,090018.900,A,4051.258014,N,11907.080855,W,0.0,0.00,,,*2C
$GPGGA,090018.950,4051.258014,N,11907.080855,W,1,5,2.87,160.0,M,-21.321,M,,*67
$GPRMC,090018.950,A,4051.258014,N,11907.080855,W,0.0,0.00,,,*29
$GPGGA,090019,4051.258014,N,11907.080855,W,1,5,2.87,160.0,M,-21.321,M,,*74
$GPRMC,090019,A,4051.258014,N,11907.080855,W,0.0,0.00,,,*3A
$GPGGA,090019.050,4051.258014,N,11907.080855,W,1,5,2.87,160.0,M,-21.321,M,,*6F
$GPRMC,090019.050,A,4051.258014,N,11907.080855,W,0.0,0.00,,,*21
$GPGGA,090019.100,4051.258014,N,11907.080855,W,1,5,2.87,160.0,M,-21.321,M,,*6B
$GPRMC,090019.100,A,4051.258014,N,11907.080855,W,0.0,0.00,,,*25
$GPGGA,090019.150,4051.258014,N,11907.080855,W,1,5,2.87,160.0,M,-21.321,M,,*6E
$GPRMC,090019.150,A,4051.258014,N,11907.080855,W,0.0,0.00,,,*20
$GPGGA,090019.200,4051.258014,N,11907.080855,W,1,5,2.87,160.0,M,-21.321,M,,*68
$GPRMC,090019.200,A,4051.258014,N,11907.080855,W,0.0,0.00,,,*26
$GPGGA,090019.250,4051.258014,N,11907.080855,W,1,5,2.87,160.0,M,-21.321,M,,*6D
$GPRMC,090019.250,A,4051.258014,N,11907.080855,W,0.0,0.00,,,*23
$GPGGA,090019.300,4051.258014,N,11907.080855,W,1,5,2.87,160.0,M,-21.321,M,,*69
$GPRMC,090019.300,A,4051.258014,N,11907.080855,W,0.0,0.00,,,*27
$GPGGA,090019.350,4051.258014,N,11907.080855,W,1,5,2.87,160.0,M,-21.321,M,,*6C
$GPRMC,090019.350,A,4051.258014,N,11907.080855,W,0.0,0.00,,,*22
$GPGGA,090019.400,4051.258014,N,11907.080855,W,1,5,2.87,160.0,M,-21.321,M,,*6E
$GPRMC,090019.400,A,4051.258014,N,11907.080855,W,0.0,0.00,,,*20
$GPGGA,090019.450,4051.258014,N,11907.080855,W,1,5,2.87,160.0,M,-21.321,M,,*6B
$GPRMC,090019.450,A,4051.258014,N,11907.080855,W,0.0,0.00,,,*25
$GPGGA,090019.500,4051.258014,N,11907.080855,W,1,5,2.87,160.0,M,-21.321,M,,*6F
$GPRMC,090019.500,A,4051.258014,N,11907.080855,W,0.0,0.00,,,*21
$GPGGA,090019.550,4051.258014,N,11907.080855,W,1,5,2.87,160.0,M,-21.321,M,,*6A
$GPRMC,090019.550,A,4051.258014,N,11907.080855,W,0.0,0.00,,,*24
$GPGGA,090019.600,4051.258014,N,11907.080855,W,1,5,2.87,160.0,M,-21.321,M,,*6C
$GPRMC,090019.600,A,4051.258014,N,11907.080855,W,0.0,0.00,,,*22
$GPGGA,090019.650,4051.258014,N,11907.080855,W,1,5,2.87,160.0,M,-21.321,M,,*69
$GPRMC,090019.650,A,4051.258014,N,11907.080855,W,0.0,0.00,,,*27
$GPGGA,090019.700,4051.258014,N,11907.080855,W,1,5,2.87,160.0,M,-21.321,M,,*6D
$GPRMC,090019.700,A,4051.258014,N,11907.080855,W,0.0,0.00,,,*23
$GPGGA,090019.750,4051.258014,N,11907.080855,W,1,5,2.87,160.0,M,-21.321,M,,*68
$GPRMC,090019.750,A,4051.258014,N,11907.080855,W,0.0,0.00,,,*26
$GPGGA,090019.800,4051.258014,N,11907.080855,W,1,5,2.87,160.0,M,-21.321,M,,*62
$GPRMC,090019.800,A,4051.258014,N,11907.080855,W,0.0,0.00,,,*2C
$GPGGA,090019.850,4051.258014,N,11907.080855,W,1,5,2.87,160.0,M,-21.321,M,,*67
$GPRMC,090019.850,A,4051.258014,N,11907.080855,W,0.0,0.00,,,*29
$GPGGA,090019.900,4051.258014,N,11907.080855,W,1,5,2.87,160.0,M,-21.321,M,,*63
$GPRMC,090019.900,A,4051.258014,N,11907.080855,W,0.0,0.00,,,*2D
$GPGGA,090019.950,4051.258014,N,11907.080855,W,1,5,2.87,160.0,M,-21.321,M,,*66
$GPRMC,090019.950,A,4051.258014,N,11907.080855,W,0.0,0.00,,,*28
$GPGGA,090020,4051.258014,N,11907.080855,W,1,5,2.87,160.0,M,-21.321,M,,*7E
$GPRMC,090020,A,4051.258014,N,11907.080855,W,0.0,0.00,,,*30
$GPGGA,090020.050,4051.258014,N,11907.080855,W,1,5,2.87,160.0,M,-21.321,M,,*65
$GPRMC,090020.050,A,4051.258014,N,11907.080855,W,0.0,0.00,,,*2B
$GPGGA,090020.100,4051.258014,N,11907.080855,W,1,5,2.87,160.0,M,-21.321,M,,*61
$GPRMC,090020.100,A,4051.258014,N,11907.080855,W,0.0,0.00,,,*2F
$GPGGA,090020.150,4051.258014,N,11907.080855,W,1,5,2.87,160.0,M,-21.321,M,,*64
$GPRMC,090020.150,A,4051.258014,N,11907.080855,W,0.0,0.00,,,*2A
$GPGGA,090020.200,4051.258014,N,11907.080855,W,1,5,2.87,160.0,M,-21.321,M,,*62
$GPRMC,090020.200,A,4051.258014,N,11907.080855,W,0.0,0.00,,,*2C
$GPGGA,090020.250,4051.258014,N,11907.080855,W,1,5,2.87,160.0,M,-21.321,M,,*67
$GPRMC,090020.250,A,4051.258014,N,11907.080855,W,0.0,0.00,,,*29
$GPGGA,090020.300,4051.258014,N,11907.080855,W,1,5,2.87,160.0,M,-21.321,M,,*63
$GPRMC,090020.300,A,4051.258014,N,11907.080855,W,0.0,0.00,,,*2D
$GPGGA,090020.350,4051.258014,N,11907.080855,W,1,5,2.87,160.0,M,-21.321,M,,*66
$GPRMC,090020.350,A,4051.258014,N,11907.080855,W,0.0,0.00,,,*28
$GPGGA,090020.400,4051.258014,N,11907.080855,W,1,5,2.87,160.0,M,-21.321,M,,*64
$GPRMC,090020.400,A,4051.258014,N,11907.080855,W,0.0,0.00,,,*2A
$GPGGA,090020.450,4051.258014,N,11907.080855,W,1,5,2.87,160.0,M,-21.321,M,,*61
$GPRMC,090020.450,A,4051.258014,N,11907.080855,W,0.0,0.00,,,*2F
$GPGGA,090020.500,4051.258014,N,11907.080855,W,1,5,2.87,160.0,M,-21.321,M,,*65
$GPRMC,090020.500,A,4051.258014,N,11907.080855,W,0.0,0.00,,,*2B
$GPGGA,090020.550,4051.258014,N,11907.080855,W,1,5,2.87,160.0,M,-21.321,M,,*60
$GPRMC,090020.550,A,4051.258014,N,11907.080855,W,0.0,0.00,,,*2E
$GPGGA,090020.600,4051.258014,N,11907.080855,W,1,5,2.87,160.0,M,-21.321,M,,*66
$GPRMC,090020.600,A,4051.258014,N,11907.080855,W,0.0,0.00,,,*28
$GPGGA,090020.650,4051.258014,N,11907.080855,W,1,5,2.87,160.0,M,-21.321,M,,*63
$GPRMC,090020.650,A,4051.258014,N,11907.080855,W,0.0,0.00,,,*2D
$GPGGA,090020.700,4051.258014,N,11907.080855,W,1,5,2.87,160.0,M,-21.321,M,,*67
$GPRMC,090020.700,A,4051.258014,N,11907.080855,W,0.0,0.00,,,*29
