$GPGGA,160930,3200.255460,N,3452.532840,E,1,4,1.00,32.2,M,0.000,M,,*70
$GPRMC,160930,A,3200.255460,N,3452.532840,E,0.0,0.00,130416,,*18
$GPGGA,161033,3200.255460,N,3452.532840,E,1,4,1.00,32.2,M,0.000,M,,*7B
$GPRMC,161033,A,3200.255460,N,3452.532840,E,0.0,99.45,130416,,*22
$GPGGA,161138,3200.229700,N,3452.714530,E,1,4,1.00,-22.5,M,0.000,M,,*58
$GPRMC,161138,A,3200.229700,N,3452.714530,E,0.0,303.69,130416,,*14
$GPGGA,161241,3200.274990,N,3452.634790,E,1,4,1.00,1.0,M,0.000,M,,*48
$GPRMC,161241,A,3200.274990,N,3452.634790,E,0.0,306.58,130416,,*1A
$GPGGA,161345,3200.277810,N,3452.630330,E,1,4,1.00,6.7,M,0.000,M,,*4D
$GPRMC,161345,A,3200.277810,N,3452.630330,E,0.0,117.72,130416,,*15
$GPGGA,161449,3200.277510,N,3452.631000,E,1,4,1.00,6.7,M,0.000,M,,*4A
$GPRMC,161449,A,3200.277510,N,3452.631000,E,0.0,119.18,130416,,*10
$GPGGA,161551,3200.259810,N,3452.668190,E,1,4,1.00,-34.9,M,0.000,M,,*55
$GPRMC,161551,A,3200.259810,N,3452.668190,E,0.0,25.54,130416,,*2B
$GPGGA,161655,3200.338010,N,3452.712040,E,1,4,1.00,27.5,M,0.000,M,,*7F
$GPRMC,161655,A,3200.338010,N,3452.712040,E,0.0,56.92,130416,,*2C
$GPGGA,161758,3200.369440,N,3452.768660,E,1,4,1.00,27.5,M,0.000,M,,*7F
$GPRMC,161758,A,3200.369440,N,3452.768660,E,0.0,18.91,130416,,*25
$GPGGA,161901,3200.457190,N,3452.803940,E,1,4,1.00,34.7,M,0.000,M,,*70
$GPRMC,161901,A,3200.457190,N,3452.803940,E,0.0,34.88,130416,,*2C
$GPGGA,162004,3200.661970,N,3452.971500,E,1,4,1.00,42.5,M,0.000,M,,*71
$GPRMC,162004,A,3200.661970,N,3452.971500,E,0.0,42.42,130416,,*29
$GPGGA,162107,3200.862750,N,3453.186860,E,1,4,1.00,36.1,M,0.000,M,,*7F
$GPRMC,162107,A,3200.862750,N,3453.186860,E,0.0,75.01,130416,,*23
$GPGGA,162211,3200.926130,N,3453.464680,E,1,4,1.00,41.0,M,0.000,M,,*72
$GPRMC,162211,A,3200.926130,N,3453.464680,E,0.0,39.55,130416,,*26
$GPGGA,162314,3201.010470,N,3453.546420,E,1,4,1.00,43.6,M,0.000,M,,*77
$GPRMC,162314,A,3201.010470,N,3453.546420,E,0.0,320.62,130416,,*18
$GPGGA,162417,3201.014310,N,3453.542720,E,1,4,1.00,47.3,M,0.000,M,,*70
$GPRMC,162417,A,3201.014310,N,3453.542720,E,0.0,344.92,130416,,*13
$GPGGA,162520,3201.074910,N,3453.523550,E,1,4,1.00,45.3,M,0.000,M,,*79
$GPRMC,162520,A,3201.074910,N,3453.523550,E,0.0,196.93,130416,,*14
$GPGGA,162624,3201.057700,N,3453.517400,E,1,4,1.00,40.8,M,0.000,M,,*7D
$GPRMC,162624,A,3201.057700,N,3453.517400,E,0.0,258.99,130416,,*15
$GPGGA,162727,3200.923550,N,3452.708480,E,1,4,1.00,48.7,M,0.000,M,,*71
$GPRMC,162727,A,3200.923550,N,3452.708480,E,0.0,258.41,130416,,*1B
$GPGGA,162831,3200.455290,N,3450.030540,E,1,4,1.00,48.0,M,0.000,M,,*7A
$GPRMC,162831,A,3200.455290,N,3450.030540,E,0.0,261.06,130416,,*1E
$GPGGA,162935,3200.236840,N,3448.401460,E,1,4,1.00,48.6,M,0.000,M,,*71
$GPRMC,162935,A,3200.236840,N,3448.401460,E,0.0,0.00,130416,,*10
$GPGGA,163039,3200.236840,N,3448.401460,E,1,4,1.00,48.6,M,0.000,M,,*75
$GPRMC,163039,A,3200.236840,N,3448.401460,E,0.0,278.71,130416,,*1F
$GPGGA,163144,3201.943850,N,3435.237010,E,1,4,1.00,109.6,M,0.000,M,,*49
$GPRMC,163144,A,3201.943850,N,3435.237010,E,0.0,277.77,130416,,*1E
$GPGGA,163248,3202.001020,N,3434.745280,E,1,4,1.00,115.5,M,0.000,M,,*41
$GPRMC,163248,A,3202.001020,N,3434.745280,E,0.0,0.00,130416,,*1A
$GPGGA,163353,3202.001020,N,3434.745280,E,1,4,1.00,115.5,M,0.000,M,,*4A
$GPRMC,163353,A,3202.001020,N,3434.745280,E,0.0,0.00,130416,,*11
$GPGGA,163457,3202.001020,N,3434.745280,E,1,4,1.00,115.5,M,0.000,M,,*49
$GPRMC,163457,A,3202.001020,N,3434.745280,E,0.0,0.00,130416,,*12
$GPGGA,163601,3202.001020,N,3434.745280,E,1,4,1.00,115.5,M,0.000,M,,*48
$GPRMC,163601,A,3202.001020,N,3434.745280,E,0.0,0.00,130416,,*13
$GPGGA,163705,3202.001020,N,3434.745280,E,1,4,1.00,115.5,M,0.000,M,,*4D
$GPRMC,163705,A,3202.001020,N,3434.745280,E,0.0,0.00,130416,,*16
$GPGGA,163809,3202.001020,N,3434.745280,E,1,4,1.00,115.5,M,0.000,M,,*4E
$GPRMC,163809,A,3202.001020,N,3434.745280,E,0.0,0.00,130416,,*15
$GPGGA,163913,3202.001020,N,3434.745280,E,1,4,1.00,115.5,M,0.000,M,,*44
$GPRMC,163913,A,3202.001020,N,3434.745280,E,0.0,0.00,130416,,*1F
$GPGGA,164018,3202.001020,N,3434.745280,E,1,4,1.00,115.5,M,0.000,M,,*41
$GPRMC,164018,A,3202.001020,N,3434.745280,E,0.0,0.00,130416,,*1A
$GPGGA,164122,3202.001020,N,3434.745280,E,1,4,1.00,115.5,M,0.000,M,,*49
$GPRMC,164122,A,3202.001020,N,3434.745280,E,0.0,0.00,130416,,*12
$GPGGA,164227,3202.001020,N,3434.745280,E,1,4,1.00,115.5,M,0.000,M,,*4F
$GPRMC,164227,A,3202.001020,N,3434.745280,E,0.0,0.00,130416,,*14
$GPGGA,164332,3202.001020,N,3434.745280,E,1,4,1.00,115.5,M,0.000,M,,*4A
$GPRMC,164332,A,3202.001020,N,3434.745280,E,0.0,0.00,130416,,*11
$GPGGA,164436,3202.001020,N,3434.745280,E,1,4,1.00,115.5,M,0.000,M,,*49
$GPRMC,164436,A,3202.001020,N,3434.745280,E,0.0,0.00,130416,,*12
$GPGGA,164540,3202.001020,N,3434.745280,E,1,4,1.00,115.5,M,0.000,M,,*49
$GPRMC,164540,A,3202.001020,N,3434.745280,E,0.0,0.00,130416,,*12
$GPGGA,164644,3202.001020,N,3434.745280,E,1,4,1.00,115.5,M,0.000,M,,*4E
$GPRMC,164644,A,3202.001020,N,3434.745280,E,0.0,0.00,130416,,*15
$GPGGA,164749,3202.001020,N,3434.745280,E,1,4,1.00,115.5,M,0.000,M,,*42
$GPRMC,164749,A,3202.001020,N,3434.745280,E,0.0,0.00,130416,,*19
$GPGGA,164853,3202.001020,N,3434.745280,E,1,4,1.00,115.5,M,0.000,M,,*46
$GPRMC,164853,A,3202.001020,N,3434.745280,E,0.0,0.00,130416,,*1D
$GPGGA,164957,3202.001020,N,3434.745280,E,1,4,1.00,115.5,M,0.000,M,,*43
$GPRMC,164957,A,3202.001020,N,3434.745280,E,0.0,0.00,130416,,*18
$GPGGA,165102,3202.001020,N,3434.745280,E,1,4,1.00,115.5,M,0.000,M,,*4A
$GPRMC,165102,A,3202.001020,N,3434.745280,E,0.0,0.00,130416,,*11
$GPGGA,165206,3202.001020,N,3434.745280,E,1,4,1.00,115.5,M,0.000,M,,*4D
$GPRMC,165206,A,3202.001020,N,3434.745280,E,0.0,93.98,130416,,*2D
$GPGGA,165807,3200.921240,N,3452.622260,E,1,4,1.00,48.5,M,0.000,M,,*7C
$GPRMC,165807,A,3200.921240,N,3452.622260,E,0.0,350.20,130416,,*1A
$GPGGA,165913,3449.836910,N,3417.244320,E,1,4,1.00,10388.4,M,0.000,M,,*45
$GPRMC,165913,A,3449.836910,N,3417.244320,E,0.0,348.65,130416,,*14
$GPGGA,170018,3456.115730,N,3415.713690,E,1,4,1.00,10381.5,M,0.000,M,,*4A
$GPRMC,170018,A,3456.115730,N,3415.713690,E,0.0,348.40,130416,,*14
$GPGGA,170123,3503.853040,N,3413.782270,E,1,4,1.00,10409.9,M,0.000,M,,*46
$GPRMC,170123,A,3503.853040,N,3413.782270,E,0.0,348.36,130416,,*12
$GPGGA,170224,3509.956700,N,3412.251690,E,1,4,1.00,10436.0,M,0.000,M,,*4A
$GPRMC,170224,A,3509.956700,N,3412.251690,E,0.0,348.46,130416,,*1C
$GPGGA,170324,3516.743870,N,3410.562330,E,1,4,1.00,10413.6,M,0.000,M,,*4C
$GPRMC,170324,A,3516.743870,N,3410.562330,E,0.0,348.57,130416,,*1B
$GPGGA,170424,3523.127760,N,3408.986780,E,1,4,1.00,10438.1,M,0.000,M,,*49
$GPRMC,170424,A,3523.127760,N,3408.986780,E,0.0,348.57,130416,,*10
$GPGGA,170528,3529.969950,N,3407.294750,E,1,4,1.00,10462.7,M,0.000,M,,*42
$GPRMC,170528,A,3529.969950,N,3407.294750,E,0.0,348.85,130416,,*1D
$GPGGA,170633,3530.397240,N,3407.191790,E,1,4,1.00,10463.3,M,0.000,M,,*4D
$GPRMC,170633,A,3530.397240,N,3407.191790,E,0.0,0.00,130416,,*15
$GPGGA,170737,3530.397240,N,3407.191790,E,1,4,1.00,10463.3,M,0.000,M,,*48
$GPRMC,170737,A,3530.397240,N,3407.191790,E,0.0,0.00,130416,,*10
$GPGGA,170841,3530.397240,N,3407.191790,E,1,4,1.00,10463.3,M,0.000,M,,*46
$GPRMC,170841,A,3530.397240,N,3407.191790,E,0.0,0.00,130416,,*1E
$GPGGA,170946,3530.397240,N,3407.191790,E,1,4,1.00,10463.3,M,0.000,M,,*40
$GPRMC,170946,A,3530.397240,N,3407.191790,E,0.0,0.00,130416,,*18
$GPGGA,171050,3530.397240,N,3407.191790,E,1,4,1.00,10463.3,M,0.000,M,,*4F
$GPRMC,171050,A,3530.397240,N,3407.191790,E,0.0,0.00,130416,,*17
$GPGGA,171154,3530.397240,N,3407.191790,E,1,4,1.00,10463.3,M,0.000,M,,*4A
$GPRMC,171154,A,3530.397240,N,3407.191790,E,0.0,0.00,130416,,*12
$GPGGA,171258,3530.397240,N,3407.191790,E,1,4,1.00,10463.3,M,0.000,M,,*45
$GPRMC,171258,A,3530.397240,N,3407.191790,E,0.0,0.00,130416,,*1D
$GPGGA,171403,3530.397240,N,3407.191790,E,1,4,1.00,10463.3,M,0.000,M,,*4D
$GPRMC,171403,A,3530.397240,N,3407.191790,E,0.0,0.00,130416,,*15
$GPGGA,171508,3530.397240,N,3407.191790,E,1,4,1.00,10463.3,M,0.000,M,,*47
$GPRMC,171508,A,3530.397240,N,3407.191790,E,0.0,0.00,130416,,*1F
$GPGGA,171612,3530.397240,N,3407.191790,E,1,4,1.00,10463.3,M,0.000,M,,*4F
$GPRMC,171612,A,3530.397240,N,3407.191790,E,0.0,0.00,130416,,*17
$GPGGA,171716,3530.397240,N,3407.191790,E,1,4,1.00,10463.3,M,0.000,M,,*4A
$GPRMC,171716,A,3530.397240,N,3407.191790,E,0.0,0.00,130416,,*12
$GPGGA,171819,3530.397240,N,3407.191790,E,1,4,1.00,10463.3,M,0.000,M,,*4A
$GPRMC,171819,A,3530.397240,N,3407.191790,E,0.0,0.00,130416,,*12
$GPGGA,171924,3530.397240,N,3407.191790,E,1,4,1.00,10463.3,M,0.000,M,,*45
$GPRMC,171924,A,3530.397240,N,3407.191790,E,0.0,168.57,130416,,*10
$GPGGA,172028,3523.127760,N,3408.986780,E,1,4,1.00,10438.1,M,0.000,M,,*43
$GPRMC,172028,A,3523.127760,N,3408.986780,E,0.0,0.00,130416,,*17
$GPGGA,172133,3523.127760,N,3408.986780,E,1,4,1.00,10438.1,M,0.000,M,,*48
$GPRMC,172133,A,3523.127760,N,3408.986780,E,0.0,0.00,130416,,*1C
$GPGGA,172237,3523.127760,N,3408.986780,E,1,4,1.00,10438.1,M,0.000,M,,*4F
$GPRMC,172237,A,3523.127760,N,3408.986780,E,0.0,0.00,130416,,*1B
$GPGGA,172341,3523.127760,N,3408.986780,E,1,4,1.00,10438.1,M,0.000,M,,*4F
$GPRMC,172341,A,3523.127760,N,3408.986780,E,0.0,0.00,130416,,*1B
$GPGGA,172445,3523.127760,N,3408.986780,E,1,4,1.00,10438.1,M,0.000,M,,*4C
$GPRMC,172445,A,3523.127760,N,3408.986780,E,0.0,0.00,130416,,*18
$GPGGA,172549,3523.127760,N,3408.986780,E,1,4,1.00,10438.1,M,0.000,M,,*41
$GPRMC,172549,A,3523.127760,N,3408.986780,E,0.0,0.00,130416,,*15
$GPGGA,172653,3523.127760,N,3408.986780,E,1,4,1.00,10438.1,M,0.000,M,,*49
$GPRMC,172653,A,3523.127760,N,3408.986780,E,0.0,0.00,130416,,*1D
$GPGGA,172758,3523.127760,N,3408.986780,E,1,4,1.00,10438.1,M,0.000,M,,*43
$GPRMC,172758,A,3523.127760,N,3408.986780,E,0.0,0.00,130416,,*17
$GPGGA,172902,3523.127760,N,3408.986780,E,1,4,1.00,10438.1,M,0.000,M,,*42
$GPRMC,172902,A,3523.127760,N,3408.986780,E,0.0,0.00,130416,,*16
$GPGGA,173006,3523.127760,N,3408.986780,E,1,4,1.00,10438.1,M,0.000,M,,*4E
$GPRMC,173006,A,3523.127760,N,3408.986780,E,0.0,0.00,130416,,*1A
$GPGGA,173110,3523.127760,N,3408.986780,E,1,4,1.00,10438.1,M,0.000,M,,*48
$GPRMC,173110,A,3523.127760,N,3408.986780,E,0.0,0.00,130416,,*1C
$GPGGA,173214,3523.127760,N,3408.986780,E,1,4,1.00,10438.1,M,0.000,M,,*4F
$GPRMC,173214,A,3523.127760,N,3408.986780,E,0.0,0.00,130416,,*1B
$GPGGA,173319,3523.127760,N,3408.986780,E,1,4,1.00,10438.1,M,0.000,M,,*43
$GPRMC,173319,A,3523.127760,N,3408.986780,E,0.0,0.00,130416,,*17
$GPGGA,173423,3523.127760,N,3408.986780,E,1,4,1.00,10438.1,M,0.000,M,,*4D
$GPRMC,173423,A,3523.127760,N,3408.986780,E,0.0,0.00,130416,,*19
$GPGGA,173528,3523.127760,N,3408.986780,E,1,4,1.00,10438.1,M,0.000,M,,*47
$GPRMC,173528,A,3523.127760,N,3408.986780,E,0.0,0.00,130416,,*13
$GPGGA,173632,3523.127760,N,3408.986780,E,1,4,1.00,10438.1,M,0.000,M,,*4F
$GPRMC,173632,A,3523.127760,N,3408.986780,E,0.0,0.00,130416,,*1B
$GPGGA,173736,3523.127760,N,3408.986780,E,1,4,1.00,10438.1,M,0.000,M,,*4A
$GPRMC,173736,A,3523.127760,N,3408.986780,E,0.0,0.00,130416,,*1E
$GPGGA,173841,3523.127760,N,3408.986780,E,1,4,1.00,10438.1,M,0.000,M,,*45
$GPRMC,173841,A,3523.127760,N,3408.986780,E,0.0,0.00,130416,,*11
$GPGGA,173945,3523.127760,N,3408.986780,E,1,4,1.00,10438.1,M,0.000,M,,*40
$GPRMC,173945,A,3523.127760,N,3408.986780,E,0.0,0.00,130416,,*14
$GPGGA,174050,3523.127760,N,3408.986780,E,1,4,1.00,10438.1,M,0.000,M,,*4A
$GPRMC,174050,A,3523.127760,N,3408.986780,E,0.0,0.00,130416,,*1E
$GPGGA,174155,3523.127760,N,3408.986780,E,1,4,1.00,10438.1,M,0.000,M,,*4E
$GPRMC,174155,A,3523.127760,N,3408.986780,E,0.0,0.00,130416,,*1A
$GPGGA,174259,3523.127760,N,3408.986780,E,1,4,1.00,10438.1,M,0.000,M,,*41
$GPRMC,174259,A,3523.127760,N,3408.986780,E,0.0,0.00,130416,,*15
$GPGGA,174404,3523.127760,N,3408.986780,E,1,4,1.00,10438.1,M,0.000,M,,*4F
$GPRMC,174404,A,3523.127760,N,3408.986780,E,0.0,0.00,130416,,*1B
$GPGGA,174508,3523.127760,N,3408.986780,E,1,4,1.00,10438.1,M,0.000,M,,*42
$GPRMC,174508,A,3523.127760,N,3408.986780,E,0.0,0.00,130416,,*16
$GPGGA,174613,3523.127760,N,3408.986780,E,1,4,1.00,10438.1,M,0.000,M,,*4B
$GPRMC,174613,A,3523.127760,N,3408.986780,E,0.0,0.00,130416,,*1F
$GPGGA,174717,3523.127760,N,3408.986780,E,1,4,1.00,10438.1,M,0.000,M,,*4E
$GPRMC,174717,A,3523.127760,N,3408.986780,E,0.0,0.00,130416,,*1A
$GPGGA,175802,3523.127760,N,3408.986780,E,1,4,1.00,10438.1,M,0.000,M,,*44
$GPRMC,175802,A,3523.127760,N,3408.986780,E,0.0,0.00,130416,,*10
$GPGGA,175907,3523.127760,N,3408.986780,E,1,4,1.00,10438.1,M,0.000,M,,*40
$GPRMC,175907,A,3523.127760,N,3408.986780,E,0.0,0.00,130416,,*14
$GPGGA,180011,3523.127760,N,3408.986780,E,1,4,1.00,10438.1,M,0.000,M,,*44
$GPRMC,180011,A,3523.127760,N,3408.986780,E,0.0,0.00,130416,,*10
$GPGGA,180116,3523.127760,N,3408.986780,E,1,4,1.00,10438.1,M,0.000,M,,*42
$GPRMC,180116,A,3523.127760,N,3408.986780,E,0.0,0.00,130416,,*16
$GPGGA,180221,3523.127760,N,3408.986780,E,1,4,1.00,10438.1,M,0.000,M,,*45
$GPRMC,180221,A,3523.127760,N,3408.986780,E,0.0,0.00,130416,,*11
$GPGGA,180325,3523.127760,N,3408.986780,E,1,4,1.00,10438.1,M,0.000,M,,*40
$GPRMC,180325,A,3523.127760,N,3408.986780,E,0.0,0.00,130416,,*14
$GPGGA,180430,3523.127760,N,3408.986780,E,1,4,1.00,10438.1,M,0.000,M,,*43
$GPRMC,180430,A,3523.127760,N,3408.986780,E,0.0,0.00,130416,,*17
$GPGGA,180534,3523.127760,N,3408.986780,E,1,4,1.00,10438.1,M,0.000,M,,*46
$GPRMC,180534,A,3523.127760,N,3408.986780,E,0.0,0.00,130416,,*12
$GPGGA,180638,3523.127760,N,3408.986780,E,1,4,1.00,10438.1,M,0.000,M,,*49
$GPRMC,180638,A,3523.127760,N,3408.986780,E,0.0,0.00,130416,,*1D
$GPGGA,180742,3523.127760,N,3408.986780,E,1,4,1.00,10438.1,M,0.000,M,,*45
$GPRMC,180742,A,3523.127760,N,3408.986780,E,0.0,0.00,130416,,*11
$GPGGA,180847,3523.127760,N,3408.986780,E,1,4,1.00,10438.1,M,0.000,M,,*4F
$GPRMC,180847,A,3523.127760,N,3408.986780,E,0.0,0.00,130416,,*1B
$GPGGA,180951,3523.127760,N,3408.986780,E,1,4,1.00,10438.1,M,0.000,M,,*49
$GPRMC,180951,A,3523.127760,N,3408.986780,E,0.0,0.00,130416,,*1D
$GPGGA,181056,3523.127760,N,3408.986780,E,1,4,1.00,10438.1,M,0.000,M,,*46
$GPRMC,181056,A,3523.127760,N,3408.986780,E,0.0,0.00,130416,,*12
$GPGGA,181200,3523.127760,N,3408.986780,E,1,4,1.00,10438.1,M,0.000,M,,*47
$GPRMC,181200,A,3523.127760,N,3408.986780,E,0.0,0.00,130416,,*13
$GPGGA,181304,3523.127760,N,3408.986780,E,1,4,1.00,10438.1,M,0.000,M,,*42
$GPRMC,181304,A,3523.127760,N,3408.986780,E,0.0,0.00,130416,,*16
$GPGGA,181409,3523.127760,N,3408.986780,E,1,4,1.00,10438.1,M,0.000,M,,*48
$GPRMC,181409,A,3523.127760,N,3408.986780,E,0.0,0.00,130416,,*1C
$GPGGA,181514,3523.127760,N,3408.986780,E,1,4,1.00,10438.1,M,0.000,M,,*45
$GPRMC,181514,A,3523.127760,N,3408.986780,E,0.0,0.00,130416,,*11
$GPGGA,181618,3523.127760,N,3408.986780,E,1,4,1.00,10438.1,M,0.000,M,,*4A
$GPRMC,181618,A,3523.127760,N,3408.986780,E,0.0,0.00,130416,,*1E
$GPGGA,181723,3523.127760,N,3408.986780,E,1,4,1.00,10438.1,M,0.000,M,,*43
$GPRMC,181723,A,3523.127760,N,3408.986780,E,0.0,0.00,130416,,*17
$GPGGA,181827,3523.127760,N,3408.986780,E,1,4,1.00,10438.1,M,0.000,M,,*48
$GPRMC,181827,A,3523.127760,N,3408.986780,E,0.0,0.00,130416,,*1C
$GPGGA,181931,3523.127760,N,3408.986780,E,1,4,1.00,10438.1,M,0.000,M,,*4E
$GPRMC,181931,A,3523.127760,N,3408.986780,E,0.0,0.00,130416,,*1A
$GPGGA,182036,3523.127760,N,3408.986780,E,1,4,1.00,10438.1,M,0.000,M,,*43
$GPRMC,182036,A,3523.127760,N,3408.986780,E,0.0,0.00,130416,,*17
$GPGGA,182140,3523.127760,N,3408.986780,E,1,4,1.00,10438.1,M,0.000,M,,*43
$GPRMC,182140,A,3523.127760,N,3408.986780,E,0.0,0.00,130416,,*17
$GPGGA,182245,3523.127760,N,3408.986780,E,1,4,1.00,10438.1,M,0.000,M,,*45
$GPRMC,182245,A,3523.127760,N,3408.986780,E,0.0,0.00,130416,,*11
$GPGGA,182349,3523.127760,N,3408.986780,E,1,4,1.00,10438.1,M,0.000,M,,*48
$GPRMC,182349,A,3523.127760,N,3408.986780,E,0.0,0.00,130416,,*1C
$GPGGA,182454,3523.127760,N,3408.986780,E,1,4,1.00,10438.1,M,0.000,M,,*43
$GPRMC,182454,A,3523.127760,N,3408.986780,E,0.0,0.00,130416,,*17
$GPGGA,182600,3523.127760,N,3408.986780,E,1,4,1.00,10438.1,M,0.000,M,,*40
$GPRMC,182600,A,3523.127760,N,3408.986780,E,0.0,0.00,130416,,*14
$GPGGA,182704,3523.127760,N,3408.986780,E,1,4,1.00,10438.1,M,0.000,M,,*45
$GPRMC,182704,A,3523.127760,N,3408.986780,E,0.0,0.00,130416,,*11
$GPGGA,184656,3523.127760,N,3408.986780,E,1,4,1.00,10438.1,M,0.000,M,,*45
$GPRMC,184656,A,3523.127760,N,3408.986780,E,0.0,0.00,130416,,*11
$GPGGA,184801,3523.127760,N,3408.986780,E,1,4,1.00,10438.1,M,0.000,M,,*49
$GPRMC,184801,A,3523.127760,N,3408.986780,E,0.0,0.00,130416,,*1D
$GPGGA,184906,3523.127760,N,3408.986780,E,1,4,1.00,10438.1,M,0.000,M,,*4F
$GPRMC,184906,A,3523.127760,N,3408.986780,E,0.0,0.00,130416,,*1B
$GPGGA,185011,3523.127760,N,3408.986780,E,1,4,1.00,10438.1,M,0.000,M,,*41
$GPRMC,185011,A,3523.127760,N,3408.986780,E,0.0,0.00,130416,,*15
$GPGGA,185117,3523.127760,N,3408.986780,E,1,4,1.00,10438.1,M,0.000,M,,*46
$GPRMC,185117,A,3523.127760,N,3408.986780,E,0.0,0.00,130416,,*12
$GPGGA,185222,3523.127760,N,3408.986780,E,1,4,1.00,10438.1,M,0.000,M,,*43
$GPRMC,185222,A,3523.127760,N,3408.986780,E,0.0,0.00,130416,,*17
$GPGGA,185327,3523.127760,N,3408.986780,E,1,4,1.00,10438.1,M,0.000,M,,*47
$GPRMC,185327,A,3523.127760,N,3408.986780,E,0.0,0.00,130416,,*13
$GPGGA,185433,3523.127760,N,3408.986780,E,1,4,1.00,10438.1,M,0.000,M,,*45
$GPRMC,185433,A,3523.127760,N,3408.986780,E,0.0,0.00,130416,,*11
$GPGGA,185537,3523.127760,N,3408.986780,E,1,4,1.00,10438.1,M,0.000,M,,*40
$GPRMC,185537,A,3523.127760,N,3408.986780,E,0.0,0.00,130416,,*14
$GPGGA,185642,3523.127760,N,3408.986780,E,1,4,1.00,10438.1,M,0.000,M,,*41
$GPRMC,185642,A,3523.127760,N,3408.986780,E,0.0,0.00,130416,,*15
$GPGGA,185746,3523.127760,N,3408.986780,E,1,4,1.00,10438.1,M,0.000,M,,*44
$GPRMC,185746,A,3523.127760,N,3408.986780,E,0.0,0.00,130416,,*10
$GPGGA,185851,3523.127760,N,3408.986780,E,1,4,1.00,10438.1,M,0.000,M,,*4D
$GPRMC,185851,A,3523.127760,N,3408.986780,E,0.0,0.00,130416,,*19
$GPGGA,185955,3523.127760,N,3408.986780,E,1,4,1.00,10438.1,M,0.000,M,,*48
$GPRMC,185955,A,3523.127760,N,3408.986780,E,0.0,0.00,130416,,*1C
$GPGGA,190100,3523.127760,N,3408.986780,E,1,4,1.00,10438.1,M,0.000,M,,*44
$GPRMC,190100,A,3523.127760,N,3408.986780,E,0.0,0.00,130416,,*10
$GPGGA,190204,3523.127760,N,3408.986780,E,1,4,1.00,10438.1,M,0.000,M,,*43
$GPRMC,190204,A,3523.127760,N,3408.986780,E,0.0,0.00,130416,,*17
$GPGGA,190309,3523.127760,N,3408.986780,E,1,4,1.00,10438.1,M,0.000,M,,*4F
$GPRMC,190309,A,3523.127760,N,3408.986780,E,0.0,0.00,130416,,*1B
$GPGGA,190414,3523.127760,N,3408.986780,E,1,4,1.00,10438.1,M,0.000,M,,*44
$GPRMC,190414,A,3523.127760,N,3408.986780,E,0.0,0.00,130416,,*10
$GPGGA,190518,3523.127760,N,3408.986780,E,1,4,1.00,10438.1,M,0.000,M,,*49
$GPRMC,190518,A,3523.127760,N,3408.986780,E,0.0,0.00,130416,,*1D
$GPGGA,190623,3523.127760,N,3408.986780,E,1,4,1.00,10438.1,M,0.000,M,,*42
$GPRMC,190623,A,3523.127760,N,3408.986780,E,0.0,0.00,130416,,*16
$GPGGA,190727,3523.127760,N,3408.986780,E,1,4,1.00,10438.1,M,0.000,M,,*47
$GPRMC,190727,A,3523.127760,N,3408.986780,E,0.0,0.00,130416,,*13
$GPGGA,190832,3523.127760,N,3408.986780,E,1,4,1.00,10438.1,M,0.000,M,,*4C
$GPRMC,190832,A,3523.127760,N,3408.986780,E,0.0,0.00,130416,,*18
$GPGGA,190937,3523.127760,N,3408.986780,E,1,4,1.00,10438.1,M,0.000,M,,*48
$GPRMC,190937,A,3523.127760,N,3408.986780,E,,,130416,,*2C
